# LAS format log file from PETREL
# Project units are specified as depth units
#==================================================================
~Version information
VERS.   2.0:
WRAP.   NO:
#==================================================================
~Well
STRT .ft      10.0000000000 :
STOP .ft      11541.500000 :
STEP .ft     0.50000000 :
NULL .        -999.250000 :
COMP.           : COMPANY
WELL.  Test-04   : WELL
FLD.            : FIELD
LOC.            : LOCATION
SRVC.           : SERVICE COMPANY
DATE.  2025-01-17 10:21:47   : Log Export Date {yyyy-MM-dd HH:mm:ss}
PROV.           : PROVINCE
UWI.      : UNIQUE WELL ID
API.            : API NUMBER
#==================================================================
~Curve
DEPT .ft                   : DEPTH
CALI .in                  : CALI
DT .us/ft                 : DT
GR .gAPI                  : GR
RESD .ohm.m               : RESD
LLS .ohm.m                : LLS
NPHI .ft3/ft3             : NPHI
RHOB .g/cm3               : RHOB
~Parameter
#==================================================================
~Ascii
# ...
 3898.5000000 18.550001144 78.300003052 10.793299675 60.520000458 55.947299957 -9.992500305  -999.250000
 3899.0000000 18.649999619 77.900001526 12.530799866 333.80969238 52.044898987 -9.992500305  -999.250000
 3899.5000000 18.700000763 76.900001526 13.573300362 60.520000458 55.986198425 -9.992500305  -999.250000
 3900.0000000 18.799999237 76.200004578 13.805000305 60.520000458 36.814899445 -9.992500305  -999.250000
 3900.5000000 18.849998474 76.800003052 13.109999657 60.520000458 40.559299469 -9.992500305  -999.250000
 3901.0000000 19.049999237 77.800003052 11.951700211 60.520000458 37.820999146 -9.992500305  -999.250000
 3901.5000000 18.899999619 77.100006104 11.720000267 60.520000458 36.712600708 -9.992500305  -999.250000
 3902.0000000 18.600000381 78.300003052 12.414999962 36.724601746 39.971698761 -9.992500305  -999.250000
 3902.5000000 18.600000381 78.700004578 13.109999657 60.520000458 71.624496460 -9.992500305  -999.250000
 3903.0000000 18.649999619 67.700004578 13.573300362 77.935997009 41.333499908 -9.992500305  -999.250000
 3903.5000000 18.649999619 69.500000000 13.341699600 8.9229001999 98.599998474 -9.992500305  -999.250000
 3904.0000000 18.750000000 67.599998474 13.573300362 60.520000458 45.032299042 -9.992500305  -999.250000
 3904.5000000 18.799999237 68.300003052 12.646699905 60.520000458 42.485500336 -9.992500305  -999.250000
 3905.0000000 18.750000000 67.799995422 11.488300323 60.520000458 33.434898376 -9.992500305  -999.250000
 3905.5000000 18.700000763 67.200004578 11.024999619 55.518501282 47.572101593 -9.992500305  -999.250000
 3906.0000000 18.600000381 69.199996948 11.140800476 60.520000458 49.605098724 -9.992500305  -999.250000
 3906.5000000 18.250000000 67.599998474 11.835800171 60.520000458 73.211196899 -9.992500305  -999.250000
 3907.0000000 18.149999619 46.200000763 11.604200363 60.520000458 70.930496216 -9.992500305  -999.250000
 3907.5000000 18.049999237 47.399997711 24.956800461 60.520000458 98.599998474 -9.992500305  -999.250000
 3908.0000000 17.949998856 68.400001526 24.250499725 60.520000458 47.686000824 -9.992500305  -999.250000
 3908.5000000 17.899999619 66.699996948 24.858299255 44.426799774 83.492301941 -9.992500305  -999.250000
 3909.0000000 17.899999619 67.599998474 22.089399338 60.520000458 98.599998474 -9.992500305  -999.250000
 3909.5000000 17.800001144 67.599998474 22.627000809 170.31530762 45.355201721 -9.992500305  -999.250000
 3910.0000000 17.649999619 67.200004578 21.314599991 60.520000458 45.383098602 -9.992500305  -999.250000
 3910.5000000 17.549999237 68.099998474 23.116500854 60.520000458 57.002300262 -9.992500305  -999.250000
 3911.0000000 17.500000000 49.399997711 23.919599533 60.520000458 45.537101746 -9.992500305  -999.250000
 3911.5000000 17.600000381 49.399997711 24.993200302 62.284698486 47.777400970 -9.992500305  -999.250000
 3912.0000000 17.700000763 58.199996948 22.548700333 60.520000458 6.5458002090 -9.992500305  -999.250000
 3912.5000000 18.000000000 58.599998474 21.556400299 60.520000458 43.442001343 -9.992500305  -999.250000
 3913.0000000 18.399999619 75.300003052 22.425100327 60.520000458 63.859100342 -9.992500305  -999.250000
 3913.5000000 18.750000000 77.299995422 21.620000839 28.896400452 45.824501038 -9.992500305  -999.250000
 3914.0000000 18.849998474 74.799995422 21.092399597 26.409200668 38.837699890 -9.992500305  -999.250000
 3914.5000000 18.399999619 68.500000000 19.800800323 60.520000458 44.311401367 -9.992500305  -999.250000
 3915.0000000 18.000000000 44.200000763 21.437700272 60.520000458 50.570899963 -9.992500305  -999.250000
 3915.5000000 17.750000000 43.999996185 20.835300446 211.88310242 84.530899048 -9.992500305  -999.250000
 3916.0000000 17.649999619 49.500000000 22.675899506 60.520000458 64.185897827 -9.992500305  -999.250000
 3916.5000000 17.600000381 58.700000763 23.918199539 60.520000458 43.937698364 -9.992500305  -999.250000
 3917.0000000 17.600000381 58.299999237 24.739099503 60.520000458 72.921897888 -9.992500305  -999.250000
 3917.5000000 17.549999237 59.300003052 23.298000336 137.68589783 84.049598694 -9.992500305  -999.250000
 3918.0000000 17.549999237 74.500000000 24.310600281 60.520000458 43.922401428 -9.992500305  -999.250000
 3918.5000000 17.600000381 84.900001526 27.124700546 72.947700500 58.936798096 -9.992500305  -999.250000
 3919.0000000 17.549999237 77.400001526 26.421699524 60.520000458 41.118598938 -9.992500305  -999.250000
 3919.5000000 17.549999237 80.000000000 25.598300934 60.520000458 43.613098145 -9.992500305  -999.250000
 3920.0000000 17.549999237 78.199996948 25.240400314 60.520000458 19.275800705 -9.992500305  -999.250000
 3920.5000000 17.549999237 77.500000000 27.821300507 60.520000458 58.128398895 -9.992500305  -999.250000
 3921.0000000 17.600000381 78.700004578 27.989999771 60.520000458 48.219600677 -9.992500305  -999.250000
 3921.5000000 17.700000763 78.400001526 29.423999786 214.11340332 62.994598389 -9.992500305  -999.250000
 3922.0000000 17.850000381 77.999992371 28.285400391 68.001197815 55.363201141 -9.992500305  -999.250000
 3922.5000000 18.000000000 77.000000000 27.569599152 101.18599701 47.302799225 -9.992500305  -999.250000
 3923.0000000 18.200000763 76.200004578 24.655300140 60.520000458 56.892501831 -9.992500305  -999.250000
 3923.5000000 18.449998856 67.799995422 23.737699509 60.520000458 57.464599609 -9.992500305  -999.250000
 3924.0000000 18.649999619 75.699996948 24.632400513 60.520000458 52.947200775 -9.992500305  -999.250000
 3924.5000000 18.799999237 66.599998474 26.112699509 60.520000458 55.256198883 -9.992500305  -999.250000
 3925.0000000 18.799999237 77.199996948 28.480800629 60.520000458 43.020000458 -9.992500305  -999.250000
 3925.5000000 18.500000000 76.900001526 29.017599106 101.56790161 47.414199829 -9.992500305  -999.250000
 3926.0000000 18.299999237 65.099998474 29.170000076 60.520000458 81.798500061 -9.992500305  -999.250000
 3926.5000000 18.100000381 75.000000000 25.596000671 60.520000458 43.636798859 -9.992500305  -999.250000
 3927.0000000 17.899999619 73.900001526 24.688999176 126.31759644 59.933898926 -9.992500305  -999.250000
 3927.5000000 17.850000381 71.500000000 23.428600311 60.520000458 74.542198181 -9.992500305  -999.250000
 3928.0000000 17.700000763 70.800003052 27.800399780 70.344200134 47.016498566 -9.992500305  -999.250000
 3928.5000000 17.500000000 61.899997711 25.128700256 234.06430054 57.382701874 -9.992500305  -999.250000
 3929.0000000 17.399999619 49.800003052 27.033700943 60.520000458 45.124099731 -9.992500305  -999.250000
 3929.5000000 17.399999619 56.800003052 25.143299103 60.520000458 44.163299561 -9.992500305  -999.250000
 3930.0000000 17.399999619 57.200000763 27.134199142 152.63819885 53.493999481 -9.992500305  -999.250000
 3930.5000000 17.450000763 42.300003052 26.495500565 77.460197449 46.062900543 0.5371000171 1.6141999960
 3931.0000000 17.549999237 42.700000763 25.612899780 60.520000458 47.109001160 0.5371000171 1.6141999960
 3931.5000000 17.700000763 40.799999237 26.338600159 58.020301819 59.331699371 0.5268999934 1.6141999960
 3932.0000000 17.899999619 54.800003052 25.631099701 60.520000458 70.619400024 0.5170000196 1.5810999870
 3932.5000000 18.049999237 54.599998474 25.819400787 60.520000458 80.607299805 0.5085999966 1.5584000349
 3933.0000000 18.250000000 51.599998474 27.770200729 127.62799835 41.671901703 0.5266000032 1.5328000784
 3933.5000000 18.299999237 55.200000763 26.025600433 60.520000458 40.074798584 0.5236999989 1.5443000793
 3934.0000000 18.299999237 57.899997711 25.813400269 65.658096313 96.610099792 0.5030000210 1.5785999298
 3934.5000000 18.200000763 55.399997711 22.714099884 57.128200531 53.140899658 0.4959000051 1.6325999498
 3935.0000000 18.100000381 45.100002289 23.408100128 60.520000458 44.556598663 0.5164999962 1.6245999336
 3935.5000000 18.149999619 55.100002289 21.649700165 60.520000458 52.380401611 0.5522999763 1.5614000559
 3936.0000000 18.200000763 68.199996948 23.146699905 60.520000458 47.979301453 0.5406000018 1.5143001080
 3936.5000000 18.100000381 88.700004578 22.787399292 60.520000458 80.533996582 0.5224000216 1.5243999958
