# LAS format log file from PETREL
# Project units are specified as depth units
#==================================================================
~Version information
VERS.   2.0:
WRAP.   NO:
#==================================================================
~Well
STRT .ft      10.0000000000 :
STOP .ft      11541.500000 :
STEP .ft     0.50000000 :
NULL .        -999.250000 :
COMP.           : COMPANY
WELL.  Test-04   : WELL
FLD.            : FIELD
LOC.            : LOCATION
SRVC.           : SERVICE COMPANY
DATE.  2025-01-17 10:21:47   : Log Export Date {yyyy-MM-dd HH:mm:ss}
PROV.           : PROVINCE
UWI.      : UNIQUE WELL ID
API.            : API NUMBER
#==================================================================
~Curve
DEPT .ft                   : DEPTH
CALI .in                  : CALI
DT .us/ft                 : DT
GR .gAPI                  : GR
RESD .ohm.m               : RESD
LLS .ohm.m                : LLS
NPHI .ft3/ft3             : NPHI
RHOB .g/cm3               : RHOB
~Parameter
#==================================================================
~Ascii
# ...
 7979.5000000 12.206599236 113.79999542 101.39409637 2.3592998981 2.2987000942 0.3652000129 2.1373999119
 7980.0000000 12.358400345 109.90000153 94.607398987 2.4660000801 2.5380001068 0.3677999973 2.1858999729
 7980.5000000 11.979000092 109.40000153 87.885299683 2.5885000229 2.6747999191 0.3438000083 2.2269999981
 7981.0000000 11.967200279 109.79999542 86.440101624 2.6649000645 2.8157999516 0.3352000117 2.2353000641
 7981.5000000 12.026000023 108.50000000 83.527198792 2.8041999340 2.8413999081 0.3404999971 2.2373998165
 7982.0000000 11.935999870 107.10000610 93.386199951 2.7544999123 2.7690000534 0.3519000113 2.2381000519
 7982.5000000 11.965000153 107.50000000 96.373100281 2.8210999966 3.0204999447 0.3449000120 2.2481000423
 7983.0000000 11.968999863 107.80000305 102.93009949 3.0234000683 2.9022998810 0.3411000073 2.2590000629
 7983.5000000 11.966300011 108.50000000 95.087799072 2.9902000427 2.8643999100 0.3382000029 2.2768998146
 7984.0000000 12.008500099 109.50000000 91.000602722 2.9949998856 2.8401999474 0.3517000079 2.2614998817
 7984.5000000 12.065400124 109.30000305 89.821296692 2.7228000164 2.8459000587 0.3573000133 2.2444999218
 7985.0000000 12.113599777 109.00000000 99.456199646 2.7574000359 2.6665000916 0.3591000140 2.2367000580
 7985.5000000 12.150499344 110.30000305 98.457298279 2.8926000595 2.8080999851 0.3571000099 2.2467999458
 7986.0000000 12.122799873 111.00000000 90.433502197 2.8687000275 2.9124999046 0.3609000146 2.2374999523
 7986.5000000 12.204199791 111.69999695 79.502296448 2.8141000271 2.8380000591 0.3508999944 2.2260000706
 7987.0000000 12.254099846 112.40000153 78.858200073 2.6259999275 2.6986999512 0.3551000059 2.2111999989
 7987.5000000 12.204799652 111.80000305 83.398300171 2.5589001179 2.6328999996 0.3657000065 2.1972999573
 7988.0000000 12.118999481 110.69999695 84.918601990 2.4767000675 2.6633999348 0.3858000040 2.2014999390
 7988.5000000 12.164899826 110.00000000 86.115303040 2.5882999897 2.7279999256 0.3837000132 2.2266001701
 7989.0000000 12.163499832 108.50000000 85.789901733 2.5722999573 2.7623999119 0.3740000129 2.2767000198
 7989.5000000 12.087399483 108.89999390 94.437202454 2.8245000839 2.7716000080 0.3655999899 2.3118999004
 7990.0000000 12.051899910 111.50000000 101.41790009 2.8552000523 2.8826000690 0.3838000000 2.3375000954
 7990.5000000 12.078199387 110.00000000 110.22239685 2.6579000950 2.7941000462 0.3939999938 2.3346002102
 7991.0000000 12.111000061 110.00000000 106.78890228 2.6547000408 2.7808001041 0.4129000008 2.3318998814
 7991.5000000 12.125499725 109.40000153 105.79160309 2.5413000584 2.8866000175 0.3986000121 2.3192999363
 7992.0000000 12.165100098 107.70000458 98.661796570 2.5692999363 2.7866001129 0.3943000138 2.3123998642
 7992.5000000 12.179599762 106.29999542 93.947998047 2.6143000126 2.7644000053 0.3840000033 2.3169999123
 7993.0000000 12.182100296 106.29999542 86.812599182 2.6501998901 2.7932999134 0.4117000103 2.3127999306
 7993.5000000 12.223899841 105.20000458 90.185699463 2.5209000111 2.8647999763 0.4138000011 2.3129999638
 7994.0000000 12.263700485 104.60000610 95.124099731 2.6357998848 2.9486999512 0.4131999910 2.3320000172
 7994.5000000 12.253200531 104.69999695 95.923103333 2.6870999336 3.0143001080 0.3903999925 2.3805000782
 7995.0000000 12.242499352 103.40000153 93.674400330 2.7309999466 2.9451999664 0.3817999959 2.4119999409
 7995.5000000 12.246600151 102.90000153 89.633903503 2.7239999771 2.9358000755 0.3761999905 2.4236001968
 7996.0000000 12.243900299 103.50000000 89.175300598 2.7193000317 2.9795999527 0.3718999922 2.4193999767
 7996.5000000 12.300000191 106.80000305 86.734703064 2.5971999168 3.0738000870 0.3718000054 2.4012000561
 7997.0000000 12.316899300 108.09999847 84.939002991 2.6238999367 2.8857998848 0.3871000111 2.3773000240
 7997.5000000 12.461799622 109.60000610 90.387100220 2.4707999229 2.6208000183 0.4029000103 2.3315000534
 7998.0000000 12.908100128 110.09999847 98.063003540 2.5130000114 2.7825999260 0.4047000110 2.3217999935
 7998.5000000 12.126900673 109.40000153 104.18499756 2.4063999653 2.8889000416 0.3953999877 2.3341000080
 7999.0000000 12.117599487 108.09999847 99.634696960 2.5450999737 2.9077999592 0.3670000136 2.3564000130
 7999.5000000 12.116299629 106.20000458 92.558097839 2.6370000839 3.0797998905 0.3625999987 2.3371999264
 8000.0000000 12.159399986 109.40000153 91.374496460 2.4855000973 3.1350998878 0.3646000028 2.2676000595
 8000.5000000 12.434900284 109.69999695 93.394699097 2.3554999828 2.8148999214 0.3874999881 2.1860001087
 8001.0000000 13.129699707 113.60000610 93.103500366 2.2448999882 2.6112999916 0.3943000138 2.1568999290
 8001.5000000 13.898099899 118.09999847 86.228897095 2.1837000847 2.4844999313 0.3914000094 2.1538999081
 8002.0000000 14.587999344 116.20000458 85.052398682 2.1447999477 2.4307999611 0.4336000085 2.1786999702
 8002.5000000 13.996600151 113.29999542 82.463699341 2.1073999405 2.3907999992 0.4444000125 2.1426000595
 8003.0000000 14.237199783 116.20000458 85.194297791 2.0875000954 2.3485000134 0.4580000043 2.1524999142
 8003.5000000 13.814299583 111.69999695 83.970100403 2.1951999664 2.6572999954 0.4300000072 2.1493999958
 8004.0000000 13.109600067 112.80000305 84.996101379 2.0694999695 2.5441000462 0.4433999956 2.2251000404
 8004.5000000 13.048199654 116.20000458 84.772399902 2.2144000530 2.6791999340 0.4481999874 2.2074999809
 8005.0000000 13.173899651 112.99999237 81.916496277 2.2228999138 2.4333999157 0.4244000018 2.1733000278
 8005.5000000 13.463200569 119.30000305 82.091796875 2.0401000977 2.2597000599 0.4496999979 2.1503999233
 8006.0000000 13.581999779 122.50000000 82.980796814 2.0508999825 2.3775999546 0.4605999887 2.1559998989
 8006.5000000 13.641799927 122.40000153 84.147903442 1.9797999859 2.3208000660 0.4794000089 2.0389001369
 8007.0000000 13.893500328 118.09999847 89.904296875 1.8871999979 2.3784999847 0.4449000061 2.0102000237
 8007.5000000 14.409299850 117.10000610 96.087196350 1.9983999729 2.4051001072 0.4194000065 2.0253999233
 8008.0000000 13.234700203 107.90000153 97.655601501 2.1486999989 2.6112999916 0.3971999884 2.2037999630
 8008.5000000 12.563700676 108.19999695 95.254302979 2.2732000351 2.6949000359 0.3738999963 2.3104999065
 8009.0000000 12.258600235 109.79999542 92.879402161 2.2035000324 2.8736000061 0.3795999885 2.3287999630
 8009.5000000 12.137299538 111.90000153 96.433197021 2.2291998863 2.7864999771 0.4011999965 2.2878999710
 8010.0000000 12.425199509 114.19999695 97.160202026 2.0866000652 2.7005999088 0.4282000065 2.3223998547
 8010.5000000 12.404099464 117.10000610 91.469100952 2.3081998825 2.4853999615 0.4287999868 2.3741998672
 8011.0000000 12.490899086 116.39999390 87.691299438 2.0683999062 2.5955998898 0.4133999944 2.3948998451
 8011.5000000 12.506199837 115.00000000 88.587600708 2.1503999233 2.7590000629 0.4106000066 2.3591001034
 8012.0000000 12.228100777 113.60000610 90.178100586 2.0353000164 2.6303000450 0.4099999964 2.3396000862
 8012.5000000 12.270400047 112.80000305 99.073600769 2.0141999722 2.5764999390 0.4172999859 2.3306999207
 8013.0000000 12.318200111 113.40000153 98.419502258 2.0506999493 2.6296000481 0.3986999989 2.3427000046
 8013.5000000 12.368599892 111.29999542 96.977996826 2.0727000237 2.4465999603 0.4029000103 2.3722000122
 8014.0000000 12.430799484 108.79999542 87.236000061 2.0660998821 2.8155999184 0.3995999992 2.3911001682
 8014.5000000 12.312099457 109.79999542 85.201301575 2.2400999069 2.7514998913 0.4120999873 2.3942999840
 8015.0000000 12.210600853 110.00000000 89.277999878 2.2490999699 2.7751998901 0.4031000137 2.3715000153
 8015.5000000 12.056500435 110.69999695 94.499603271 2.2525000572 2.6617000103 0.3876999915 2.3546998501
 8016.0000000 12.113699913 110.09999847 97.188400269 2.1616001129 2.6965999603 0.3585999906 2.3443999290
 8016.5000000 12.046000481 108.09999847 97.535499573 2.2277998924 2.7657001019 0.3632999957 2.3559999466
 8017.0000000 12.044699669 106.10000610 93.780097961 2.1717000008 2.8002998829 0.3770999908 2.3636000156
 8017.5000000 12.054499626 108.19999695 90.143798828 2.2416999340 2.8448998928 0.4031000137 2.3763999939
