# LAS format log file from PETREL
# Project units are specified as depth units
#==================================================================
~Version information
VERS.   2.0:
WRAP.   NO:
#==================================================================
~Well
STRT .ft      10.0000000000 :
STOP .ft      11541.500000 :
STEP .ft     0.50000000 :
NULL .        -999.250000 :
COMP.           : COMPANY
WELL.  Test-04   : WELL
FLD.            : FIELD
LOC.            : LOCATION
SRVC.           : SERVICE COMPANY
DATE.  2025-01-17 10:21:47   : Log Export Date {yyyy-MM-dd HH:mm:ss}
PROV.           : PROVINCE
UWI.      : UNIQUE WELL ID
API.            : API NUMBER
#==================================================================
~Curve
DEPT .ft                   : DEPTH
CALI .in                  : CALI
DT .us/ft                 : DT
GR .gAPI                  : GR
RESD .ohm.m               : RESD
LLS .ohm.m                : LLS
NPHI .ft3/ft3             : NPHI
RHOB .g/cm3               : RHOB
~Parameter
#==================================================================
~Ascii
# ...
 4899.5000000 22.733098984 196.30000305 36.861198425 109.89250183 3.4196999073 0.5174999833 1.4268000126
 4900.0000000 22.756000519 196.70001221 32.399200439 116.06050110 3.2021000385 0.5515999794 1.4348000288
 4900.5000000 22.731500626 196.89999390 35.723999023 121.78990173 3.3002998829 0.5393000245 1.4693000317
 4901.0000000 22.724802017 196.10000610 38.398399353 126.34989929 3.5241999626 0.4914000034 1.5224000216
 4901.5000000 22.753301620 197.00000000 37.432800293 128.70910645 3.6314001083 0.4589000046 1.5658000708
 4902.0000000 22.736799240 197.09999084 42.145698547 129.27549744 3.5246000290 0.4948000014 1.5716999769
 4902.5000000 22.720100403 195.29998779 41.922798157 132.61610413 3.3606998920 0.5317999721 1.5582000017
 4903.0000000 22.748300552 193.30000305 41.069400787 132.04690552 3.3729000092 0.5449000001 1.5190999508
 4903.5000000 22.745899200 193.10000610 35.019298553 137.06829834 3.3197999001 0.5273000002 1.4939999580
 4904.0000000 22.730400085 194.50000000 36.381198883 140.48950195 3.7032001019 0.5121999979 1.4579999447
 4904.5000000 22.732801437 194.70001221 39.953498840 146.80769348 3.7267000675 0.5191000104 1.4488000870
 4905.0000000 22.754499435 192.50000000 39.953498840 151.53950500 3.9005000591 0.5123000145 1.4895999432
 4905.5000000 22.713600159 189.10000610 38.039699554 152.16960144 3.9806001186 0.5335999727 1.5423001051
 4906.0000000 22.763601303 187.20001221 36.878200531 155.24279785 4.0601000786 0.5001999736 1.5585999489
 4906.5000000 22.727800369 186.50000000 39.355998993 155.03709412 4.0622000694 0.5123000145 1.5266999006
 4907.0000000 22.731298447 185.80000305 38.834098816 154.34410095 4.2704000473 0.4690000117 1.4958000183
 4907.5000000 22.745100021 184.39999390 39.549098969 159.23649597 4.3800997734 0.4762000144 1.4921000004
 4908.0000000 22.743900299 181.89999390 39.772399902 163.23890686 4.2881999016 0.4505000114 1.5038000345
 4908.5000000 22.712999344 180.69999695 42.208000183 176.39999390 4.3492999077 0.4639999866 1.5383000374
 4909.0000000 22.760499954 181.10000610 42.008300781 185.60510254 4.5184001923 0.4411000013 1.6139999628
 4909.5000000 22.723199844 180.40000916 38.882499695 185.05870056 4.6410999298 0.4221000075 1.7595999241
 4910.0000000 22.736000061 178.19999695 37.074901581 180.44169617 4.8323998451 0.4110000134 1.9344000816
 4910.5000000 22.730798721 175.40000916 39.284000397 172.87649536 4.4379000664 0.4210000038 2.0820000172
 4911.0000000 22.751499176 174.00000000 42.759601593 167.85539246 4.6894001961 0.4214000106 2.1131000519
 4911.5000000 22.736400604 173.30000305 43.227600098 167.64450073 5.1097998619 0.4203999937 2.0989999771
 4912.0000000 22.735000610 172.20001221 39.208698273 165.82090759 4.5465002060 0.4000999928 2.0978999138
 4912.5000000 22.745399475 172.59999084 33.946998596 163.44599915 5.0088000298 0.4045000076 2.1078999043
 4913.0000000 22.726301193 173.30000305 34.616901398 163.24899292 4.4798998833 0.4140000045 2.1358001232
 4913.5000000 22.734600067 174.50000000 36.602401733 161.44270325 4.6420001984 0.4113000035 2.1556000710
 4914.0000000 22.749198914 174.50000000 35.262798309 161.15960693 4.5638999939 0.4268000126 2.1482000351
 4914.5000000 22.755199432 174.00000000 34.592998505 161.07009888 4.4258999825 0.4293000102 2.1431999207
 4915.0000000 22.763900757 173.60000610 33.234401703 161.86140442 4.3649001122 0.4670999944 2.1229999065
 4915.5000000 22.757299423 174.10000610 37.253299713 160.17619324 4.2850999832 0.4530000091 2.0891001225
 4916.0000000 22.761098862 175.40000916 34.815200806 150.40919495 4.2653999329 0.4390000105 2.0492000580
 4916.5000000 22.743299484 176.50000000 35.550598145 147.34190369 3.9479000568 0.4309000075 2.0129001141
 4917.0000000 22.767599106 177.69999695 33.131401062 138.57710266 3.5662999153 0.4602999985 1.9650000334
 4917.5000000 22.743299484 179.30000305 35.790500641 134.08399963 3.6707000732 0.4954000115 1.9301999807
 4918.0000000 22.764799118 181.19999695 34.672199249 125.98419952 3.8248000145 0.4925000072 1.8626999855
 4918.5000000 22.742000580 183.60000610 34.224098206 117.91480255 3.5223000050 0.4889000058 1.7796999216
 4919.0000000 22.769899368 184.59999084 33.151401520 108.40840149 3.6036999226 0.4747000039 1.7188000679
 4919.5000000 22.734100342 184.30000305 33.844398499 96.586997986 3.6770000458 0.4774000049 1.7051999569
 4920.0000000 22.776500702 184.50000000 34.945098877 86.568099976 3.3306999207 0.4866000116 1.7304999828
 4920.5000000 22.740699768 186.80000305 36.513599396 75.701301575 3.4205000401 0.4699000120 1.7533999681
 4921.0000000 22.757198334 189.90000916 39.846599579 66.568702698 3.2753999233 0.4753000140 1.7261999846
 4921.5000000 22.749401093 189.70001221 40.964900970 58.666198730 3.0845999718 0.4596999884 1.6714999676
 4922.0000000 22.753398895 189.80000305 42.703601837 58.436500549 3.1224000454 0.4898999929 1.6333000660
 4922.5000000 22.761301041 189.90000916 38.698398590 62.116699219 3.1280999184 0.4571000040 1.6818000078
 4923.0000000 22.760000229 188.60000610 38.944099426 72.764099121 3.5197999477 0.4526999891 1.8100999594
 4923.5000000 22.749900818 186.60000610 39.418498993 88.704498291 3.6215000153 0.3991000056 2.0025000572
 4924.0000000 22.761301041 185.00000000 42.806400299 111.43910217 3.6672999859 0.4521999955 2.1641001701
 4924.5000000 22.731899261 185.69999695 45.495201111 123.67890167 3.4047000408 0.4595000148 2.1995000839
 4925.0000000 22.761301041 187.00000000 42.161800385 129.10189819 2.9051001072 0.4815999866 2.0304999352
 4925.5000000 22.749601364 184.59999084 38.997898102 126.77420044 3.2862000465 0.4575000107 1.7594000101
 4926.0000000 22.770299911 182.69999695 36.530700684 124.47339630 3.3677999973 0.4609000087 1.5493000746
 4926.5000000 22.738500595 181.39999390 38.348098755 121.93509674 3.0524001122 0.4551999867 1.4488999844
 4927.0000000 22.767900467 181.30000305 38.593898773 122.18419647 3.0425999165 0.4693000019 1.4528000355
 4927.5000000 22.744701385 181.60000610 40.916900635 122.62180328 2.7578999996 0.4695000052 1.5515999794
 4928.0000000 22.761600494 181.50000000 39.142898560 126.37159729 3.1584999561 0.5072000027 1.6575000286
 4928.5000000 22.734600067 179.80000305 42.537700653 125.58850098 2.9258000851 0.4853999913 1.7226999998
 4929.0000000 22.774200439 177.00000000 39.790798187 122.31780243 3.0524001122 0.4774000049 1.7498999834
 4929.5000000 22.747301102 175.80000305 44.288200378 122.50849915 3.1326000690 0.4959999919 1.7690000534
 4930.0000000 22.760099411 174.90000916 43.531299591 121.28150177 2.9184000492 0.5037000179 1.7684999704
 4930.5000000 22.738201141 175.69999695 45.326999664 122.51260376 3.3645999432 0.5054000020 1.7394000292
 4931.0000000 22.750999451 174.39999390 41.054401398 128.34609985 2.8970000744 0.4668999910 1.7145999670
 4931.5000000 22.747301102 168.00000000 41.783599854 134.22059631 3.1888000965 0.4797999859 1.7208000422
 4932.0000000 22.766500473 168.60000610 41.310600281 143.27499390 3.0039000511 0.4817000031 1.7849999666
 4932.5000000 22.761301041 169.20001221 42.434898376 147.04939270 3.3817999363 0.4510000050 1.8901998997
 4933.0000000 22.749900818 166.80000305 42.210498810 150.01210022 3.0615000725 0.4009000063 2.0274999142
 4933.5000000 22.735500336 166.30000305 41.132198334 153.02690125 3.2611999512 0.3648999929 2.1686000824
 4934.0000000 22.764900208 166.10000610 39.087799072 153.32359314 3.1768999100 0.3526000082 2.2666001320
 4934.5000000 22.749601364 167.00000000 36.371700287 150.92810059 2.9769999981 0.3702000082 2.2953999043
 4935.0000000 22.753301620 166.89999390 35.678298950 146.74920654 2.6229000092 0.3745000064 2.2762000561
 4935.5000000 22.762199402 167.40000916 40.196300507 139.42010498 3.0443000793 0.3921000063 2.2138998508
 4936.0000000 22.741600037 160.89999390 39.545398712 133.13259888 2.7946000099 0.4063000083 2.1261000633
 4936.5000000 22.751798630 161.19999695 38.871898651 127.72889709 2.5399999619 0.4388000071 1.9895000458
 4937.0000000 22.755899429 161.39999390 34.853900909 121.81349945 2.5213999748 0.4596000016 1.8418999910
 4937.5000000 22.747098923 160.50000000 34.608600616 122.59089661 2.5527000427 0.4654000103 1.7166999578
