# LAS format log file from PETREL
# Project units are specified as depth units
#==================================================================
~Version information
VERS.   2.0:
WRAP.   NO:
#==================================================================
~Well
STRT .ft      10.0000000000 :
STOP .ft      11541.500000 :
STEP .ft     0.50000000 :
NULL .        -999.250000 :
COMP.           : COMPANY
WELL.  Test-04   : WELL
FLD.            : FIELD
LOC.            : LOCATION
SRVC.           : SERVICE COMPANY
DATE.  2025-01-17 10:21:47   : Log Export Date {yyyy-MM-dd HH:mm:ss}
PROV.           : PROVINCE
UWI.      : UNIQUE WELL ID
API.            : API NUMBER
#==================================================================
~Curve
DEPT .ft                   : DEPTH
CALI .in                  : CALI
DT .us/ft                 : DT
GR .gAPI                  : GR
RESD .ohm.m               : RESD
LLS .ohm.m                : LLS
NPHI .ft3/ft3             : NPHI
RHOB .g/cm3               : RHOB
~Parameter
#==================================================================
~Ascii
# ...
 6439.5000000 16.738300323 113.60000610 53.224998474 34.983600616 9.1056003571 0.3345000148 2.1561000347
 6440.0000000 16.842399597 111.29999542 50.065299988 36.677398682 8.9351997375 0.3501000106 2.1737999916
 6440.5000000 17.149801254 111.00000000 49.625198364 37.763500214 8.8010997772 0.3759999871 2.1860001087
 6441.0000000 17.813100815 112.90000153 46.535301208 38.132701874 8.5467996597 0.4034000039 2.2103998661
 6441.5000000 18.402000427 115.00000000 45.647399902 38.082099915 8.3156995773 0.4065999985 2.2074999809
 6442.0000000 18.819499969 116.80000305 46.068099976 38.365398407 8.4217996597 0.4124000072 2.1542999744
 6442.5000000 19.356599808 118.09999847 43.475299835 37.859600067 7.8457999229 0.3860999942 2.0913000107
 6443.0000000 20.332201004 117.40000153 42.552398682 38.487800598 8.0440998077 0.3722000122 2.0783998966
 6443.5000000 20.038101196 113.50000000 40.596698761 39.510700226 8.2404003143 0.3731000125 2.1051001549
 6444.0000000 19.518800735 112.50000000 40.276199341 40.671398163 8.1936998367 0.3874000013 2.1501998901
 6444.5000000 19.488901138 111.39999390 40.042098999 42.402999878 7.9148998260 0.3765999973 2.1611001492
 6445.0000000 19.571199417 111.39999390 38.653701782 42.737499237 7.8552999496 0.3788000047 2.1616001129
 6445.5000000 19.632398605 112.40000153 40.002998352 42.809799194 8.0434999466 0.3901000023 2.1663000584
 6446.0000000 19.725898743 113.40000153 38.170101166 42.732700348 7.5697999001 0.4167000055 2.1623001099
 6446.5000000 19.852800369 115.40000153 37.249298096 42.517700195 7.5082001686 0.3926999867 2.1686999798
 6447.0000000 20.098400116 116.20000458 34.226001740 42.270000458 7.2645001411 0.3984000087 2.1760001183
 6447.5000000 20.528999329 122.10000610 36.966400146 42.454898834 7.1669998169 0.4079999924 2.1289999485
 6448.0000000 20.883798599 120.49999237 38.313201904 43.038799286 7.0690999031 0.4429000020 2.0627000332
 6448.5000000 20.954700470 120.40000153 42.501598358 43.937999725 7.1570000648 0.4756999910 2.0085999966
 6449.0000000 20.647998810 117.90000153 40.481399536 44.938701630 6.9699001312 0.4611000121 2.0043001175
 6449.5000000 20.335699081 117.10000610 40.443401337 44.789600372 7.0479998589 0.4695000052 2.0300998688
 6450.0000000 20.238100052 119.40000153 39.027999878 43.687999725 7.2898998260 0.4329999983 2.0803999901
 6450.5000000 20.353801727 122.59999847 39.341598511 41.528400421 7.4089999199 0.4447000027 2.1071000099
 6451.0000000 20.582698822 121.20000458 40.950901031 38.186298370 7.4559998512 0.4451999962 2.0776000023
 6451.5000000 20.658199310 120.30000305 41.373699188 35.640701294 7.0862998962 0.4612999856 1.9848999977
 6452.0000000 20.480501175 122.70000458 42.907199860 35.287799835 7.1577000618 0.4515999854 1.9433000088
 6452.5000000 20.434400558 119.90000153 44.643600464 36.349498749 7.3424000740 0.4469999969 1.9739999771
 6453.0000000 20.292600632 118.79999542 45.931301117 37.859699249 7.1567997932 0.4438000023 2.0688998699
 6453.5000000 20.365900040 119.40000153 43.545501709 40.460601807 7.3046998978 0.4902999997 2.0597000122
 6454.0000000 20.184900284 119.00000000 40.190498352 41.285499573 7.1462001801 0.4783000052 1.9720000029
 6454.5000000 19.788301468 117.19999695 39.821399689 41.451301575 7.4966001511 0.4722999930 1.9438000917
 6455.0000000 19.620800018 119.69999695 38.976398468 42.912799835 7.4748997688 0.4250000119 1.9977999926
 6455.5000000 19.590700150 115.69999695 40.515800476 44.169399261 7.3498997688 0.4433999956 2.1116001606
 6456.0000000 19.703199387 115.00000000 40.341598511 44.054798126 7.3200998306 0.4379000068 2.1373000145
 6456.5000000 20.034099579 115.79999542 44.367599487 40.319301605 7.2620000839 0.4339999855 2.1223001480
 6457.0000000 20.755599976 118.09999847 45.735900879 44.049400330 7.2021999359 0.4284000099 2.1294000149
 6457.5000000 21.119199753 116.10000610 44.719100952 42.373699188 6.9390001297 0.4528999925 2.0920000076
 6458.0000000 21.328599930 116.90000153 44.916900635 41.283901215 7.3129000664 0.4763000011 2.0404000282
 6458.5000000 21.330299377 119.79999542 40.240299225 40.366798401 7.5023999214 0.4781000018 2.0280001163
 6459.0000000 21.275199890 119.50000000 37.064300537 39.250198364 7.3877000809 0.4532000124 2.0596001148
 6459.5000000 21.350799561 118.70000458 35.300800323 38.923698425 7.7300000191 0.4311999977 2.0751998425
 6460.0000000 21.417600632 117.59999847 37.172901154 39.642398834 7.6743998528 0.4165999889 2.0581998825
 6460.5000000 21.467500687 118.70000458 39.899600983 40.889598846 7.5851001740 0.4551999867 2.0591001511
 6461.0000000 21.483299255 119.50000000 42.807300568 42.905200958 7.7522001266 0.4796000123 2.0756001472
 6461.5000000 21.510698318 120.69999695 40.028198242 44.277999878 7.6322999001 0.4776999950 2.0861001015
 6462.0000000 21.330598831 120.90000153 41.144599915 45.395000458 7.4928002357 0.4859000146 2.0399000645
 6462.5000000 20.675100327 120.00000000 43.604900360 46.092601776 7.5782999992 0.4824000001 1.9941999912
 6463.0000000 20.083700180 119.09999847 46.007400513 46.976600647 7.7617998123 0.4683000147 1.9948999882
 6463.5000000 19.538299561 118.79999542 46.230701447 48.305500031 7.7530999184 0.4230999947 2.0808000565
 6464.0000000 19.518499374 118.70000458 42.652000427 48.597599030 8.0081996918 0.4293000102 2.1188998222
 6464.5000000 19.620399475 119.69999695 43.844898224 46.926300049 7.4597997665 0.4458999932 2.1171998978
 6465.0000000 19.791299820 120.49999237 43.201000214 45.697898865 7.4079999924 0.4733999968 2.0950000286
 6465.5000000 20.044198990 120.79999542 45.214000702 44.793598175 7.2602000237 0.4659000039 2.0761001110
 6466.0000000 20.576101303 120.30000305 46.406898499 44.857601166 7.2849998474 0.4762000144 2.0610001087
 6466.5000000 21.328100204 118.50000000 43.946498871 45.288101196 7.1311998367 0.4824000001 2.0608999729
 6467.0000000 21.806800842 118.09999847 40.914600372 45.694801331 7.1928000450 0.4690999985 2.0603001118
 6467.5000000 22.075799942 122.59999847 41.457901001 45.348800659 7.4303002357 0.4837000072 2.0690000057
 6468.0000000 21.988000870 132.90000916 46.857101440 43.753700256 7.8232998848 0.4562000036 2.0731000900
 6468.5000000 22.033800125 131.69999695 46.480400085 41.298301697 8.0932998657 0.4501999915 2.0801999569
 6469.0000000 22.162401199 131.19999695 42.930000305 38.351299286 7.8916997910 0.4735000134 2.0638000965
 6469.5000000 22.370500565 127.29999542 40.387599945 35.596801758 7.6089000702 0.4713999927 2.0404999256
 6470.0000000 22.436800003 127.99999237 38.672298431 33.821800232 7.3829998970 0.5177999735 1.9352999926
 6470.5000000 21.551601410 125.79999542 43.145698547 32.971401215 7.6030998230 0.4864000082 1.7265000343
 6471.0000000 19.979700089 121.50000000 46.104198456 33.368099213 8.1831998825 0.4900000095 1.6549999714
 6471.5000000 18.955200195 119.09999847 47.202098846 32.701301575 8.0854997635 0.4172999859 1.6991999149
 6472.0000000 18.182699203 117.59999847 46.133499146 32.074001312 8.4344997406 0.3605999947 1.9405000210
 6472.5000000 17.245500565 129.30000305 43.422401428 33.147800446 8.7868995667 0.3352999985 2.1506001949
 6473.0000000 17.368700027 127.29999542 45.012901306 34.061901093 8.6871995926 0.3230000138 2.2233998775
 6473.5000000 17.403600693 124.19999695 43.372398376 35.203701019 8.5270004272 0.3343999982 2.2178001404
 6474.0000000 17.371900558 116.00000000 42.504901886 37.939399719 8.7137002945 0.3262999952 2.2071001530
 6474.5000000 17.355098724 122.10000610 40.914299011 39.144401550 8.8395996094 0.3116999865 2.1928000450
 6475.0000000 17.541900635 121.10000610 44.549701691 38.545200348 9.2305002213 0.2989999950 2.1884999275
 6475.5000000 17.740100861 120.90000153 46.789299011 38.887001038 9.2168998718 0.3021000028 2.1870000362
 6476.0000000 17.777500153 120.20000458 50.454700470 40.933101654 9.1013002396 0.3120999932 2.1913998127
 6476.5000000 17.466400146 118.40000153 46.670398712 40.924198151 9.1856002808 0.2935999930 2.1883001328
 6477.0000000 17.380201340 117.90000153 44.922500610 45.251800537 9.6042003632 0.2822999954 2.1691999435
 6477.5000000 17.392200470 117.80000305 41.750999451 45.335498810 9.9128999710 0.2897999883 2.1436998844
