# LAS format log file from PETREL
# Project units are specified as depth units
#==================================================================
~Version information
VERS.   2.0:
WRAP.   NO:
#==================================================================
~Well
STRT .ft      10.0000000000 :
STOP .ft      11541.500000 :
STEP .ft     0.50000000 :
NULL .        -999.250000 :
COMP.           : COMPANY
WELL.  Test-04   : WELL
FLD.            : FIELD
LOC.            : LOCATION
SRVC.           : SERVICE COMPANY
DATE.  2025-01-17 10:21:47   : Log Export Date {yyyy-MM-dd HH:mm:ss}
PROV.           : PROVINCE
UWI.      : UNIQUE WELL ID
API.            : API NUMBER
#==================================================================
~Curve
DEPT .ft                   : DEPTH
CALI .in                  : CALI
DT .us/ft                 : DT
GR .gAPI                  : GR
RESD .ohm.m               : RESD
LLS .ohm.m                : LLS
NPHI .ft3/ft3             : NPHI
RHOB .g/cm3               : RHOB
~Parameter
#==================================================================
~Ascii
# ...
 11021.000000 11.802700996 91.599998474 80.200798035 1.7195999622 1.5494999886 0.2520000041 2.2365000248
 11021.500000 11.803600311 91.200004578 82.953300476 1.8119000196 1.6822999716 0.2606000006 2.2536001205
 11022.000000 11.805600166 91.000000000 89.499900818 1.9147000313 1.7935999632 0.2572000027 2.2651998997
 11022.500000 11.815900803 89.900001526 96.169700623 1.9953999519 1.7992999554 0.2608000040 2.2913999557
 11023.000000 11.814899445 89.900001526 95.900299072 2.1947999001 1.8802000284 0.2538999915 2.3027999401
 11023.500000 11.811699867 91.500000000 97.999801636 2.2042000294 2.0522000790 0.2572999895 2.3025000095
 11024.000000 11.816499710 91.200004578 93.945899963 2.1468000412 1.9404000044 0.2664999962 2.2953999043
 11024.500000 11.807600021 91.100006104 95.789398193 2.2130999565 1.9491000175 0.2693000138 2.2964999676
 11025.000000 11.816400528 90.699996948 95.137802124 2.3029999733 2.1691000462 0.2802999914 2.3071000576
 11025.500000 11.817799568 90.900001526 94.978302002 2.3833000660 2.2248001099 0.2671999931 2.3190000057
 11026.000000 11.819199562 90.800003052 89.293502808 2.2813999653 2.1835000515 0.2723999918 2.2978000641
 11026.500000 11.819100380 91.200004578 88.762496948 2.2797999382 2.1782000065 0.2639000118 2.2811000347
 11027.000000 11.822799683 90.599998474 94.311302185 2.0864999294 2.0548000336 0.2687000036 2.2763998508
 11027.500000 11.830400467 88.600006104 96.847999573 2.1428999901 2.0618999004 0.2646000087 2.2933001518
 11028.000000 11.836900711 87.999992371 93.558097839 2.2629001141 2.1019999981 0.2689000070 2.3243999481
 11028.500000 11.853899956 88.300003052 85.760498047 2.3914000988 2.3285000324 0.2770000100 2.3568000793
 11029.000000 11.848800659 88.400001526 84.636100769 2.6198999882 2.5062999725 0.2718999982 2.3793001175
 11029.500000 11.845399857 88.700004578 89.308799744 2.5989999771 2.5083999634 0.2610000074 2.3771998882
 11030.000000 11.844299316 89.099998474 92.232200623 2.6935999393 2.5222001076 0.2554000020 2.3552000523
 11030.500000 11.850199699 89.000000000 92.463897705 2.4393000603 2.3796000481 0.2590000033 2.3440001011
 11031.000000 11.859199524 87.800003052 88.382499695 2.4913001060 2.4128000736 0.2707999945 2.3534998894
 11031.500000 11.830800056 87.500000000 92.911697388 2.6849999428 2.5903999805 0.2757999897 2.3768999577
 11032.000000 11.799300194 87.299995422 96.563903809 2.7502999306 2.6744999886 0.2795999944 2.3864998817
 11032.500000 11.730100632 85.900001526 108.65509796 3.0917999744 2.9990999699 0.2831000090 2.3776001930
 11033.000000 11.730799675 87.700004578 111.32180023 3.2743000984 3.1735000610 0.2811999917 2.3506000042
 11033.500000 11.734600067 88.199996948 114.60030365 3.2936000824 3.1486999989 0.2856999934 2.3266999722
 11034.000000 11.713999748 89.099998474 103.73940277 2.8334000111 2.7302000523 0.2791000009 2.3034999371
 11034.500000 11.732399940 90.499992371 99.017097473 2.6370999813 2.5099999905 0.2901000082 2.2836000919
 11035.000000 11.801300049 92.100006104 97.766098022 2.3545000553 2.3285000324 0.2888999879 2.2788999081
 11035.500000 11.805100441 91.100006104 95.861198425 2.0913000107 2.0927000046 0.2957000136 2.3104999065
 11036.000000 11.811100006 89.400001526 97.597602844 2.1745998859 2.1724998951 0.2809999883 2.3580000401
 11036.500000 11.807499886 89.600006104 99.399803162 2.5013999939 2.5675001144 0.2723999918 2.3766999245
 11037.000000 11.786299706 88.400001526 103.10399628 2.4844999313 2.5141999722 0.2705000043 2.3657000065
 11037.500000 11.806499481 87.700004578 101.47740173 2.7225999832 2.8083999157 0.2685000002 2.3623998165
 11038.000000 11.815400124 87.100006104 92.087501526 2.7915999889 2.8322000504 0.2669999897 2.3818998337
 11038.500000 11.819400787 87.400001526 95.944602966 2.7111999989 2.7258999348 0.2673999965 2.3968000412
 11039.000000 11.816699028 86.399993896 96.782096863 2.9217998981 2.8826999664 0.2676999867 2.3952000141
 11039.500000 11.809599876 85.200004578 100.01260376 3.0011999607 2.8475999832 0.2741000056 2.3833000660
 11040.000000 11.811300278 85.099998474 99.428199768 2.9500000477 2.9672999382 0.2705999911 2.3800001144
 11040.500000 11.815000534 85.800003052 100.22910309 2.9988999367 2.9374001026 0.2750000060 2.3847999573
 11041.000000 11.820400238 85.800003052 103.65779877 3.0211999416 2.8496999741 0.2784999907 2.4065001011
 11041.500000 11.821000099 86.299995422 100.39029694 3.0494000912 2.9356999397 0.2775000036 2.4223999977
 11042.000000 11.836000443 86.200004578 100.70770264 3.1422998905 3.1061000824 0.2786999941 2.4279999733
 11042.500000 11.829399109 85.900001526 100.93139648 3.2976999283 3.2321999073 0.2750000060 2.4307000637
 11043.000000 11.846600533 85.699996948 99.955398560 3.4535999298 3.2332000732 0.2709000111 2.4323000908
 11043.500000 11.828700066 84.900001526 101.58470154 3.7651998997 3.4300000668 0.2588999867 2.4433999062
 11044.000000 11.827099800 84.199996948 103.45330048 3.8362998962 3.5866999626 0.2497999966 2.4373998642
 11044.500000 11.819299698 85.800003052 110.54650116 3.5987000465 3.4512000084 0.2471999973 2.4019999504
 11045.000000 11.825600624 87.400001526 104.54329681 3.3933000565 3.3025999069 0.2494000047 2.3977999687
 11045.500000 11.818099976 87.000000000 102.89839935 3.1986000538 3.0866999626 0.2583999932 2.4006998539
 11046.000000 11.852999687 88.899993896 99.856002808 3.1240000725 2.9512000084 0.2664999962 2.3938999176
 11046.500000 11.879800797 89.099998474 106.07620239 2.9317998886 2.7495000362 0.2707999945 2.3854999542
 11047.000000 11.880499840 87.100006104 105.18150330 2.7878000736 2.6786000729 0.2531000078 2.3998999596
 11047.500000 11.914100647 87.900001526 103.51650238 2.9649000168 2.9711000919 0.2409999967 2.4316000938
 11048.000000 11.913200378 86.000000000 99.714401245 3.0889999866 2.9758999348 0.2379000038 2.4530000687
 11048.500000 11.881799698 86.299995422 105.83550262 3.3211998940 3.1119000912 0.2463999987 2.4488999844
 11049.000000 11.875299454 86.200004578 106.21820068 3.4270999432 3.3903999329 0.2500999868 2.4244999886
 11049.500000 11.852099419 87.900001526 106.78230286 3.3945000172 3.2397999763 0.2540000081 2.3923997879
 11050.000000 11.854200363 87.599998474 96.411499023 3.0541000366 2.9277000427 0.2675000131 2.3750000000
 11050.500000 11.865200043 88.300003052 95.233596802 2.7467999458 2.6721000671 0.2725999951 2.3713998795
 11051.000000 11.833199501 87.100006104 96.824096680 2.7534999847 2.7147998810 0.2694000006 2.3741998672
 11051.500000 11.857100487 87.999992371 101.96839905 2.8157999516 2.8887999058 0.2714000046 2.3740000725
 11052.000000 11.874099731 88.400001526 101.59609985 2.8675999641 2.9049999714 0.2851000130 2.3903999329
 11052.500000 12.078900337 87.299995422 100.02610016 3.1470000744 3.1930000782 0.3016000092 2.4243998528
 11053.000000 12.478700638 85.499992371 95.701797485 3.0803000927 3.1254000664 0.3118000031 2.4503998756
 11053.500000 12.678100586 85.400001526 94.508499146 3.3211998940 3.3313000202 0.3016000092 2.4523000717
 11054.000000 12.358300209 84.199996948 98.307502747 3.4618999958 3.4964001179 0.3253999949 2.4543998241
 11054.500000 12.039599419 84.199996948 100.84049988 3.6221001148 3.4711000919 0.3364000022 2.4381999969
 11055.000000 12.033999443 84.400001526 106.65589905 3.4923999310 3.5404000282 0.3625000119 2.3281998634
 11055.500000 12.324899673 80.099998474 105.92179871 3.5583000183 3.5225999355 0.3513999879 2.2273001671
 11056.000000 13.697799683 78.500000000 103.78669739 3.5399999619 3.6291000843 0.3325999975 2.2128000259
 11056.500000 13.154800415 86.000000000 99.146499634 3.5088999271 3.4572000504 0.3492000103 2.2643001080
 11057.000000 12.941699982 88.400001526 92.482398987 3.3577001095 3.4495000839 0.3765999973 2.2825000286
 11057.500000 13.084499359 83.700004578 94.843002319 3.3225998878 3.4098999500 0.3989999890 2.2283000946
 11058.000000 13.142600060 87.299995422 93.792999268 3.1858999729 3.3083999157 0.3973000050 2.1958000660
 11058.500000 13.019599915 91.699996948 97.139900208 3.1182999611 3.2546999454 0.4020999968 2.1326000690
 11059.000000 13.986000061 87.100006104 96.186203003 3.2053999901 3.3396999836 0.3993999958 2.1231999397
