# LAS format log file from PETREL
# Project units are specified as depth units
#==================================================================
~Version information
VERS.   2.0:
WRAP.   NO:
#==================================================================
~Well
STRT .ft      10.0000000000 :
STOP .ft      11541.500000 :
STEP .ft     0.50000000 :
NULL .        -999.250000 :
COMP.           : COMPANY
WELL.  Test-04   : WELL
FLD.            : FIELD
LOC.            : LOCATION
SRVC.           : SERVICE COMPANY
DATE.  2025-01-17 10:21:47   : Log Export Date {yyyy-MM-dd HH:mm:ss}
PROV.           : PROVINCE
UWI.      : UNIQUE WELL ID
API.            : API NUMBER
#==================================================================
~Curve
DEPT .ft                   : DEPTH
CALI .in                  : CALI
DT .us/ft                 : DT
GR .gAPI                  : GR
RESD .ohm.m               : RESD
LLS .ohm.m                : LLS
NPHI .ft3/ft3             : NPHI
RHOB .g/cm3               : RHOB
~Parameter
#==================================================================
~Ascii
# ...
 11521.500000  -999.250000 94.099998474 108.13289642 3.3466999531 2.9646999836 -9.992500305  -999.250000
 11522.000000  -999.250000 94.099998474 108.13289642 3.3517999649 2.9760999680 -9.992500305  -999.250000
 11522.500000  -999.250000 94.099998474 108.13289642 3.3650000095 2.9674999714 -9.992500305  -999.250000
 11523.000000  -999.250000 94.099998474 108.13289642 3.3496999741 2.9756000042 -9.992500305  -999.250000
 11523.500000  -999.250000 94.099998474 108.13289642 3.3710000515 2.9681999683 -9.992500305  -999.250000
 11524.000000  -999.250000 94.099998474 108.13289642 3.3759999275 2.9651000500 -9.992500305  -999.250000
 11524.500000  -999.250000 94.099998474 108.13289642 3.3619999886 2.9697000980 -9.992500305  -999.250000
 11525.000000  -999.250000 94.099998474 108.13289642 3.3361999989 2.9718999863 -9.992500305  -999.250000
 11525.500000  -999.250000 94.099998474 108.13289642 3.3111000061 2.9656999111 -9.992500305  -999.250000
 11526.000000  -999.250000 94.099998474 108.13289642 3.3308999538 2.9737000465 -9.992500305  -999.250000
 11526.500000  -999.250000 94.099998474 108.13289642 3.3441998959 2.9519999027 -9.992500305  -999.250000
 11527.000000  -999.250000 94.099998474 108.13289642 3.2859001160 2.9702999592 -9.992500305  -999.250000
 11527.500000  -999.250000 94.099998474 108.13289642 3.2859001160 2.9702999592 -9.992500305  -999.250000
 11528.000000  -999.250000 94.099998474 108.13289642 3.2859001160 2.9702999592 -9.992500305  -999.250000
 11528.500000  -999.250000 94.099998474 108.13289642 3.2859001160 2.9702999592 -9.992500305  -999.250000
 11529.000000  -999.250000 94.099998474 108.13289642 3.2859001160 2.9702999592 -9.992500305  -999.250000
 11529.500000  -999.250000 94.099998474 108.13289642 3.2859001160 2.9702999592 -9.992500305  -999.250000
 11530.000000  -999.250000 94.099998474 108.13289642 3.2859001160 2.9702999592 -9.992500305  -999.250000
 11530.500000  -999.250000 94.099998474 108.13289642 3.2859001160 2.9702999592 -9.992500305  -999.250000
 11531.000000  -999.250000 94.099998474 108.13289642 3.2859001160 2.9702999592 -9.992500305  -999.250000
 11531.500000  -999.250000 94.099998474 108.13289642 3.2859001160 2.9702999592 -9.992500305  -999.250000
 11532.000000  -999.250000 94.099998474 108.13289642 3.2859001160 2.9702999592 -9.992500305  -999.250000
 11532.500000  -999.250000 94.099998474 108.13289642 3.2859001160 2.9702999592 -9.992500305  -999.250000
 11533.000000  -999.250000 94.099998474 108.13289642 3.2859001160 2.9702999592 -9.992500305  -999.250000
 11533.500000  -999.250000 94.099998474 108.13289642 3.2859001160 2.9702999592 -9.992500305  -999.250000
 11534.000000  -999.250000 94.099998474 108.13289642 3.2859001160 2.9702999592 -9.992500305  -999.250000
 11534.500000  -999.250000 94.099998474 108.13289642 3.2859001160 2.9702999592 -9.992500305  -999.250000
 11535.000000  -999.250000 94.099998474 108.13289642 3.2859001160 2.9702999592 -9.992500305  -999.250000
 11535.500000  -999.250000 94.099998474 108.13289642 3.2859001160 2.9702999592 -9.992500305  -999.250000
 11536.000000  -999.250000 94.099998474 108.13289642 3.2859001160 2.9702999592 -9.992500305  -999.250000
 11536.500000  -999.250000 94.099998474 108.13289642 3.2859001160 2.9702999592 -9.992500305  -999.250000
 11537.000000  -999.250000 94.099998474 108.13289642 3.2859001160 2.9702999592 -9.992500305  -999.250000
 11537.500000  -999.250000 94.099998474 108.13289642 3.2859001160 2.9702999592 -9.992500305  -999.250000
 11538.000000  -999.250000 94.099998474 108.13289642 3.2859001160 2.9702999592 -9.992500305  -999.250000
 11538.500000  -999.250000 94.099998474 108.13289642 3.2859001160 2.9702999592 -9.992500305  -999.250000
 11539.000000  -999.250000 94.099998474 108.13289642 3.2859001160 2.9702999592 -9.992500305  -999.250000
 11539.500000  -999.250000 94.099998474 108.13289642 3.2859001160 2.9702999592 -9.992500305  -999.250000
 11540.000000  -999.250000 94.099998474 108.13289642 3.2859001160 2.9702999592 -9.992500305  -999.250000
 11540.500000  -999.250000 94.099998474 108.13289642 3.2859001160 2.9702999592 -9.992500305  -999.250000
 11541.000000  -999.250000 94.099998474 108.13289642 3.2859001160 2.9702999592 -9.992500305  -999.250000
 11541.500000  -999.250000 94.099998474 108.13289642 3.2859001160 2.9702999592 -9.992500305  -999.250000
