# LAS format log file from PETREL
# Project units are specified as depth units
#==================================================================
~Version information
VERS.   2.0:
WRAP.   NO:
#==================================================================
~Well
STRT .ft      10.0000000000 :
STOP .ft      11541.500000 :
STEP .ft     0.50000000 :
NULL .        -999.250000 :
COMP.           : COMPANY
WELL.  Test-04   : WELL
FLD.            : FIELD
LOC.            : LOCATION
SRVC.           : SERVICE COMPANY
DATE.  2025-01-17 10:21:47   : Log Export Date {yyyy-MM-dd HH:mm:ss}
PROV.           : PROVINCE
UWI.      : UNIQUE WELL ID
API.            : API NUMBER
#==================================================================
~Curve
DEPT .ft                   : DEPTH
CALI .in                  : CALI
DT .us/ft                 : DT
GR .gAPI                  : GR
RESD .ohm.m               : RESD
LLS .ohm.m                : LLS
NPHI .ft3/ft3             : NPHI
RHOB .g/cm3               : RHOB
~Parameter
#==================================================================
~Ascii
# ...
 5939.0000000 17.047700882 124.69999695 44.424098969 29.035400391 7.3182001114 0.3732999861 2.0886001587
 5939.5000000 17.513900757 123.09999847 43.869400024 31.699699402 7.4780001640 0.3939000070 2.0557000637
 5940.0000000 17.965299606 124.09999847 44.743999481 30.154800415 7.6915001869 0.4194000065 2.0422999859
 5940.5000000 18.219999313 123.40000153 41.182201385 27.373899460 7.4566001892 0.4099000096 2.0657999516
 5941.0000000 17.925701141 127.00000000 37.267700195 23.310499191 6.9117999077 0.3702999949 2.0996000767
 5941.5000000 17.837900162 124.60000610 42.079399109 21.094999313 6.9741001129 0.3702999949 2.1096999645
 5942.0000000 17.713300705 123.09999847 50.647899628 19.031400681 7.1579999924 0.3998000026 2.1076002121
 5942.5000000 17.627399445 121.59999847 60.092601776 19.086399078 7.1156997681 0.4115999937 2.1306002140
 5943.0000000 17.069601059 121.39999390 56.401199341 17.394800186 7.0785999298 0.3388000131 2.1770000458
 5943.5000000 16.488500595 122.29999542 46.710300446 15.324500084 6.6131000519 0.2603000104 2.2239999771
 5944.0000000 16.464200974 120.30000305 40.581798553 13.316699982 6.6420998573 0.2276999950 2.2101998329
 5944.5000000 16.565099716 122.40000153 40.831600189 11.537599564 6.1476998329 0.2739999890 2.1619999409
 5945.0000000 16.879899979 123.40000153 48.498600006 10.356699944 5.6861000061 0.3296000063 2.1254999638
 5945.5000000 17.890499115 122.90000153 51.029098511 9.4201002121 5.3698000908 0.3379000127 2.1421999931
 5946.0000000 16.469600677 121.80000305 51.451599121 8.3422002792 4.7912001610 0.3143000007 2.1696000099
 5946.5000000 16.766799927 120.30000305 53.296901703 7.7417001724 4.8449997902 0.2991000116 2.1991999149
 5947.0000000 16.351100922 118.70000458 64.540496826 7.4285001755 4.5004000664 0.3027000129 2.2181999683
 5947.5000000 16.416299820 119.79999542 76.961601257 7.7666997910 5.0064997673 0.3352999985 2.2372000217
 5948.0000000 16.006299973 123.19999695 77.854797363 8.3478002548 5.1545000076 0.3441999853 2.2578999996
 5948.5000000 16.000200272 124.60000610 75.050300598 8.3586997986 5.7595000267 0.3598000109 2.2497999668
 5949.0000000 16.000499725 127.10000610 73.026397705 7.8699002266 5.5602002144 0.3607999980 2.2443997860
 5949.5000000 15.993600845 125.09999847 75.459999084 7.1855998039 5.1852002144 0.3664999902 2.2346999645
 5950.0000000 16.003700256 121.80000305 82.029602051 6.7958002090 4.8860001564 0.3659000099 2.2393000126
 5950.5000000 16.114299774 122.70000458 86.077301025 6.6651000977 4.8151998520 0.3713000119 2.2598998547
 5951.0000000 16.170499802 120.40000153 88.110198975 6.6097998619 4.6276998520 0.3747999966 2.2816998959
 5951.5000000 16.182399750 119.90000153 82.947402954 6.3965001106 4.7182002068 0.3903000057 2.2988998890
 5952.0000000 15.952899933 122.29999542 83.119400024 5.8783998489 4.4566998482 0.3686999977 2.3008000851
 5952.5000000 15.934100151 125.40000153 84.459701538 5.8278999329 4.6350998878 0.3637999892 2.3062000275
 5953.0000000 16.042400360 129.19999695 87.640197754 5.3751001358 4.2962999344 0.3682000041 2.3027999401
 5953.5000000 16.437799454 130.30000305 86.568603516 5.2133998871 4.2178001404 0.3754999936 2.3178000450
 5954.0000000 17.560800552 131.39999390 91.680999756 4.9488000870 3.8842999935 0.3889999986 2.3408999443
 5954.5000000 18.174100876 129.40000916 91.813400269 4.6559000015 3.7060999870 0.3639000058 2.3355000019
 5955.0000000 17.902400970 130.30000305 91.762603760 4.8267002106 3.9261999130 0.3851999938 2.3211998940
 5955.5000000 18.207799911 136.19999695 83.830902100 4.7743000984 4.1128001213 0.3785000145 2.2955000401
 5956.0000000 18.212799072 139.89999390 77.599899292 4.4485001564 3.5506999493 0.4061999917 2.2732000351
 5956.5000000 17.820798874 142.90000916 78.445602417 4.0777997971 3.4781999588 0.4251999855 2.2543001175
 5957.0000000 17.975000381 141.60000610 86.317901611 4.1749000549 3.6057000160 0.4564000070 2.2508997917
 5957.5000000 16.883399963 140.69999695 87.889198303 4.1890001297 3.8373000622 0.4519999921 2.2533998489
 5958.0000000 16.878499985 134.69999695 85.401702881 4.2431998253 3.5199999809 0.4329000115 2.2567999363
 5958.5000000 16.361799240 133.60000610 80.971702576 4.2163000107 3.8506000042 0.3995000124 2.2493999004
 5959.0000000 16.462900162 133.60000610 86.079498291 4.1718001366 3.6496000290 0.3786999881 2.2413001060
 5959.5000000 16.627700806 134.50000000 84.354301453 4.2175998688 3.5817000866 0.3939000070 2.2331998348
 5960.0000000 16.785900116 137.60000610 83.182601929 4.0778999329 3.5701000690 0.4050999880 2.2204999924
 5960.5000000 16.758100510 141.39999390 81.359397888 4.2683000565 3.8485999107 0.4354000092 2.2183001041
 5961.0000000 16.749000549 141.90000916 88.036796570 4.5286002159 3.7541000843 0.4077999890 2.2196998596
 5961.5000000 16.550699234 141.50000000 90.053497314 4.1545000076 3.5889999866 0.4171000123 2.2237999439
 5962.0000000 16.571100235 139.50000000 89.911399841 4.1388001442 3.7246999741 0.4154999852 2.2190001011
 5962.5000000 16.694700241 138.39999390 88.785003662 3.9170000553 3.4365999699 0.4289000034 2.2208998203
 5963.0000000 16.557100296 139.60000610 92.370101929 3.7114000320 3.5034999847 0.4174000025 2.2267000675
 5963.5000000 16.806200027 139.40000916 92.594596863 3.6038999557 3.3252999783 0.4277999997 2.2348999977
 5964.0000000 17.008899689 138.50000000 93.272796631 3.8176999092 3.2746000290 0.4444000125 2.2261002064
 5964.5000000 16.359399796 133.00000000 91.087600708 3.4177999496 3.4658999443 0.4402000010 2.2208998203
 5965.0000000 16.517299652 143.19999695 95.293098450 3.7430999279 3.6019999981 0.4172999859 2.2202999592
 5965.5000000 16.968400955 136.60000610 95.261703491 3.4990000725 3.5464999676 0.4129000008 2.2351999283
 5966.0000000 16.937999725 138.00000000 96.159500122 3.7588999271 3.5639998913 0.4555000067 2.2486999035
 5966.5000000 16.708000183 138.60000610 93.470703125 3.5636000633 3.5869998932 0.4686999917 2.2609000206
 5967.0000000 16.599300385 138.19999695 88.395103455 3.4755001068 3.3032000065 0.4449000061 2.2526001930
 5967.5000000 16.702299118 130.69999695 85.201202393 3.2193999290 3.2713999748 0.4311999977 2.2578999996
 5968.0000000 16.837499619 129.69999695 79.818496704 3.3324999809 3.2553000450 0.4219999909 2.2641000748
 5968.5000000 16.728199005 119.50000000 74.655700684 4.0367999077 3.4716999531 0.4074999988 2.2897000313
 5969.0000000 16.377401352 113.40000153 63.483699799 5.4328999519 3.9586000443 0.3578000069 2.3013000488
 5969.5000000 16.680398941 115.40000153 53.657001495 7.4359002113 4.8050999641 0.3007000089 2.2931001186
 5970.0000000 16.645399094 107.99999237 45.127498627 10.846699715 5.3712000847 0.2759999931 2.2769999504
 5970.5000000 16.635299683 109.30000305 39.291301727 13.999400139 6.0306000710 0.2551999986 2.2537000179
 5971.0000000 17.073200226 110.30000305 36.822200775 16.643699646 5.9602999687 0.2585000098 2.2296998501
 5971.5000000 17.420999527 111.29999542 39.040401459 20.651100159 6.5026998520 0.2680000067 2.2202999592
 5972.0000000 17.442001343 112.80000305 37.227001190 24.539499283 7.0950999260 0.2642000020 2.2133998871
 5972.5000000 17.552299500 116.20000458 37.196899414 25.077699661 6.8695998192 0.2748000026 2.2158000469
 5973.0000000 17.832199097 116.29999542 34.508098602 25.122999191 7.1359000206 0.2741000056 2.2054998875
 5973.5000000 18.063199997 117.29999542 36.524700165 24.075500488 7.6572999954 0.2809000015 2.1970000267
 5974.0000000 18.102600098 118.50000000 35.432399750 23.405700684 7.5346999168 0.2795000076 2.1949999332
 5974.5000000 18.103899002 117.90000153 35.453701019 23.123699188 7.8187999725 0.2773000002 2.1858000755
 5975.0000000 18.298398972 118.40000153 35.326900482 23.643999100 7.6484999657 0.2912999988 2.1719999313
 5975.5000000 18.636699677 119.19999695 35.508899689 25.435800552 7.5114002228 0.2998000085 2.1491000652
 5976.0000000 18.810199738 120.00000000 38.176399231 27.399200439 7.4791998863 0.3206999898 2.1433000565
 5976.5000000 18.901800156 120.00000000 35.406398773 30.815799713 7.1417999268 0.3246000111 2.1376001835
 5977.0000000 18.963500977 120.49999237 35.448898315 34.322799683 6.9584999084 0.3129000068 2.1446001530
