# LAS format log file from PETREL
# Project units are specified as depth units
#==================================================================
~Version information
VERS.   2.0:
WRAP.   NO:
#==================================================================
~Well
STRT .ft      10.0000000000 :
STOP .ft      11541.500000 :
STEP .ft     0.50000000 :
NULL .        -999.250000 :
COMP.           : COMPANY
WELL.  Test-04   : WELL
FLD.            : FIELD
LOC.            : LOCATION
SRVC.           : SERVICE COMPANY
DATE.  2025-01-17 10:21:47   : Log Export Date {yyyy-MM-dd HH:mm:ss}
PROV.           : PROVINCE
UWI.      : UNIQUE WELL ID
API.            : API NUMBER
#==================================================================
~Curve
DEPT .ft                   : DEPTH
CALI .in                  : CALI
DT .us/ft                 : DT
GR .gAPI                  : GR
RESD .ohm.m               : RESD
LLS .ohm.m                : LLS
NPHI .ft3/ft3             : NPHI
RHOB .g/cm3               : RHOB
~Parameter
#==================================================================
~Ascii
# ...
 8480.0000000 16.136199951 103.70000458 38.358001709 2.5680999756 1.7203999758 0.3822000027 2.0761001110
 8480.5000000 15.462499619 103.89999390 35.619998932 2.8134000301 1.6345000267 0.4052000046 2.1236000061
 8481.0000000 15.386500359 103.70000458 34.165000916 2.9361000061 1.9500999451 0.4138999879 2.1154999733
 8481.5000000 15.256599426 108.70000458 32.648799896 2.7493000031 1.8760999441 0.4178000093 2.0781002045
 8482.0000000 15.111100197 107.00000000 34.547100067 2.6452000141 1.8870999813 0.4000999928 2.0745999813
 8482.5000000 15.322100639 104.19999695 32.880001068 2.4059000015 1.6729999781 0.4066999853 2.1338999271
 8483.0000000 15.468300819 103.70000458 32.401798248 2.2660999298 1.8976999521 0.4154999852 1.9018000364
 8483.5000000 14.090900421 100.80000305 33.870498657 2.2084000111 1.7826000452 0.4487999976 1.8486000299
 8484.0000000 13.633100510 103.50000000 44.542999268 2.0964000225 1.6172000170 0.4616000056 1.8626999855
 8484.5000000 12.836999893 103.50000000 56.020198822 2.2091999054 1.7575999498 0.4410000145 2.1606001854
 8485.0000000 12.583100319 107.19999695 66.999900818 2.3397998810 1.8040000200 0.3917999864 2.3108000755
 8485.5000000 12.556799889 107.50000000 74.781799316 2.7111001015 1.9875999689 0.2928999960 2.3438999653
 8486.0000000 12.472899437 105.00000000 74.109497070 3.3907999992 2.3928999901 0.2475000024 2.3391001225
 8486.5000000 12.527899742 102.19999695 61.558498383 3.4361999035 2.4061999321 0.2258999944 2.3229999542
 8487.0000000 12.897100449 105.20000458 47.962299347 3.3489000797 2.6473999023 0.2243999988 2.2973001003
 8487.5000000 12.342599869 102.19999695 40.380199432 3.4149999619 2.6366999149 0.2213999927 2.2462999821
 8488.0000000 12.521599770 101.59999847 39.166000366 2.8891999722 2.1796998978 0.2081000060 2.1926999092
 8488.5000000 12.731800079 103.19999695 40.169399261 2.6005001068 2.0989000797 0.2435999960 2.1723999977
 8489.0000000 12.938899994 103.19999695 37.544998169 2.4865999222 1.9414000511 0.2694999874 2.1875000000
 8489.5000000 12.937199593 102.80000305 38.782501221 2.1619999409 1.7963000536 0.3050000072 2.1661999226
 8490.0000000 13.120600700 104.50000000 39.198501587 1.9530999660 1.5932999849 0.3291000128 2.1603000164
 8490.5000000 13.254499435 104.30000305 43.596401215 2.0397999287 1.6959999800 0.3001999855 2.2258000374
 8491.0000000 13.200400352 103.19999695 50.330699921 2.3768999577 1.9084999561 0.2700999975 2.2978999615
 8491.5000000 13.351500511 103.30000305 50.338298798 2.7967000008 2.0025000572 0.2365999967 2.2627999783
 8492.0000000 14.038299561 100.09999847 49.979000092 3.0725998878 2.1459000111 0.2714999914 2.2328000069
 8492.5000000 14.712399483 100.90000153 41.181400299 3.1624999046 2.0130000114 0.3242000043 2.2431001663
 8493.0000000 15.067699432 100.20000458 40.374801636 2.4683001041 1.7888000011 0.3533999920 2.2314999104
 8493.5000000 14.659399986 100.59999847 40.480998993 2.4193000793 1.7108000517 0.3698000014 2.2019999027
 8494.0000000 14.034400940 102.80000305 42.486499786 2.4137001038 1.7316999435 0.3463999927 2.1905000210
 8494.5000000 14.166399956 101.20000458 39.477100372 2.4393000603 1.7441999912 0.3546000123 2.1538000107
 8495.0000000 14.499400139 100.80000305 31.941699982 2.4288001060 1.7131999731 0.3583999872 2.1541998386
 8495.5000000 14.888500214 100.69999695 28.143600464 2.3815999031 1.7517999411 0.3607000113 2.1653001308
 8496.0000000 15.075099945 101.39999390 27.756999969 2.2734999657 1.6620999575 0.3605999947 2.1813001633
 8496.5000000 15.265399933 101.59999847 31.027500153 2.2107000351 1.5762000084 0.3521000147 2.1531000137
 8497.0000000 15.266299248 102.19999695 32.012599945 2.2149999142 1.4733999968 0.3612000048 2.1771001816
 8497.5000000 15.389599800 102.00000000 31.052400589 2.1817998886 1.5561000109 0.3716999888 2.1789000034
 8498.0000000 15.362400055 101.90000153 32.967601776 2.0467000008 1.4757000208 0.3829999864 2.1559000015
 8498.5000000 15.394300461 102.90000153 36.488300323 2.1038999557 1.4451999664 0.3707000017 2.1566998959
 8499.0000000 15.319000244 102.99999237 39.446098328 2.1663000584 1.4029999971 0.3440000117 2.1528999805
 8499.5000000 14.981600761 103.19999695 38.428901672 2.1768000126 1.4222999811 0.3429000080 2.1906001568
 8500.0000000 14.800200462 103.40000153 38.120601654 2.1910998821 1.3782999516 0.3188999891 2.1878998280
 8500.5000000 14.975699425 103.19999695 38.080898285 2.3854999542 1.5561000109 0.3262000084 2.1853001118
 8501.0000000 15.035399437 101.80000305 42.263000488 2.3096001148 1.5679999590 0.3373999894 2.1830000877
 8501.5000000 15.154599190 101.10000610 39.409801483 2.2376999855 1.5765999556 0.3607000113 2.1772999763
 8502.0000000 15.359700203 101.59999847 38.812801361 2.3735001087 1.4837000370 0.3711999953 2.1795001030
 8502.5000000 15.705599785 103.50000000 37.548801422 2.2446000576 1.5226000547 0.3591000140 2.1853001118
 8503.0000000 15.976200104 107.00000000 38.368099213 2.2880001068 1.5506999493 0.3727000058 2.1914999485
 8503.5000000 16.234199524 104.00000000 40.985298157 2.3519001007 1.4242000580 0.3939999938 2.2019000053
 8504.0000000 16.680601120 103.79999542 37.071899414 2.2346000671 1.4701999426 0.4185000062 2.1848001480
 8504.5000000 17.411199570 111.29999542 37.597000122 2.1586000919 1.4239000082 0.4357999861 2.0933001041
 8505.0000000 18.229299545 112.19999695 35.776298523 1.9270000458 1.3407000303 0.4533999860 1.7884999514
 8505.5000000 17.490499496 112.99999237 37.893901825 1.6993999481 1.2697999477 0.4302000105 1.7055000067
 8506.0000000 16.760400772 113.29999542 40.156700134 1.7498999834 1.3272000551 0.3630000055 1.7273000479
 8506.5000000 14.641499519 111.90000153 39.508300781 1.9605000019 1.3911999464 0.2847999930 2.0209000111
 8507.0000000 13.282200813 104.09999847 38.983699799 2.2342998981 1.5723999739 0.2477999926 2.2193000317
 8507.5000000 13.378299713 102.40000153 35.619800568 2.5014998913 1.7170000076 0.2675999999 2.1968998909
 8508.0000000 13.921500206 99.400001526 36.108501434 2.4560999870 1.8939000368 0.2899999917 2.1777000427
 8508.5000000 14.048100471 100.09999847 39.745998383 2.2899000645 1.6763000488 0.3486999869 2.2381000519
 8509.0000000 13.528599739 107.10000610 53.143199921 2.2123000622 1.7718000412 0.4072000086 2.2953000069
 8509.5000000 12.785000801 107.90000153 64.102500916 2.4978001118 1.6483999491 0.4354999959 2.2664999962
 8510.0000000 12.642499924 111.69999695 63.053798676 2.6491000652 1.8338999748 0.3643999994 2.2295000553
 8510.5000000 12.671900749 109.09999847 50.554401398 2.5773999691 1.9749000072 0.2734000087 2.1916999817
 8511.0000000 12.977899551 105.49999237 38.560100555 2.4616000652 1.7821999788 0.2213000059 2.1606998444
 8511.5000000 13.657700539 110.09999847 36.023700714 2.1294999123 1.7927000523 0.2364999950 2.1353998184
 8512.0000000 14.378300667 106.69999695 38.492900848 2.0313999653 1.6175999641 0.2642000020 2.1518001556
 8512.5000000 15.201700211 105.59999847 38.692001343 1.9945000410 1.5493999720 0.2838000059 2.1773998737
 8513.0000000 15.741099358 105.40000153 38.939800262 1.9269000292 1.5335999727 0.2969999909 2.2081000805
 8513.5000000 16.100099564 104.90000153 37.919998169 1.9522999525 1.4429999590 0.3201999962 2.2032999992
 8514.0000000 16.951099396 104.30000305 38.491699219 1.9255000353 1.4709000587 0.3494000137 2.1661999226
 8514.5000000 17.372900009 103.79999542 36.417198181 1.9005000591 1.4529000521 0.3885999918 2.1122000217
 8515.0000000 17.331399918 104.00000000 36.658401489 1.8927999735 1.4448000193 0.4104999900 2.0846998692
 8515.5000000 17.378799438 101.80000305 36.658401489 1.8694000244 1.4332000017 0.4343999922 2.0938000679
 8516.0000000 17.769599915 102.90000153 37.057300568 1.9726999998 1.3832000494 0.4106000066 2.1593000889
 8516.5000000 17.651199341 102.59999847 35.345798492 1.8202999830 1.3662999868 0.4093999863 2.0961000919
 8517.0000000 16.860300064 103.79999542 36.019199371 1.7764999866 1.2810000181 0.3820999861 1.9338999987
 8517.5000000 15.981900215 103.50000000 39.409801483 1.7395000458 1.2280000448 0.3885999918 1.8848999739
 8518.0000000 14.043300629 105.69999695 43.714199066 1.7749999762 1.2857999802 0.3641999960 1.9656000137
