# LAS format log file from PETREL
# Project units are specified as depth units
#==================================================================
~Version information
VERS.   2.0:
WRAP.   NO:
#==================================================================
~Well
STRT .ft      10.0000000000 :
STOP .ft      11541.500000 :
STEP .ft     0.50000000 :
NULL .        -999.250000 :
COMP.           : COMPANY
WELL.  Test-04   : WELL
FLD.            : FIELD
LOC.            : LOCATION
SRVC.           : SERVICE COMPANY
DATE.  2025-01-17 10:21:47   : Log Export Date {yyyy-MM-dd HH:mm:ss}
PROV.           : PROVINCE
UWI.      : UNIQUE WELL ID
API.            : API NUMBER
#==================================================================
~Curve
DEPT .ft                   : DEPTH
CALI .in                  : CALI
DT .us/ft                 : DT
GR .gAPI                  : GR
RESD .ohm.m               : RESD
LLS .ohm.m                : LLS
NPHI .ft3/ft3             : NPHI
RHOB .g/cm3               : RHOB
~Parameter
#==================================================================
~Ascii
# ...
 7440.5000000 12.473699570 108.70000458 91.992401123 6.1168999672 4.9355998039 0.3199999928 2.2813000679
 7441.0000000 12.626399994 114.90000153 92.836700439 5.8776998520 4.6360001564 0.3479000032 2.2036001682
 7441.5000000 12.454700470 116.00000000 89.640403748 4.8434000015 3.9107999802 0.3409000039 2.1626999378
 7442.0000000 12.173399925 117.50000000 84.589797974 4.8756999969 4.1026000977 0.3422000110 2.1633000374
 7442.5000000 12.145899773 116.59999847 84.195297241 5.5683999062 4.5068998337 0.3501000106 2.1921999454
 7443.0000000 12.119199753 118.60000610 85.593696594 5.9173998833 4.5380997658 0.3370999992 2.2077000141
 7443.5000000 12.058199883 121.10000610 88.511802673 6.3379998207 4.8376998901 0.3368999958 2.1771001816
 7444.0000000 12.036599159 119.79999542 90.310798645 6.0942997932 4.7067999840 0.3339999914 2.1391000748
 7444.5000000 12.044699669 118.29999542 86.914703369 5.4551000595 4.2466998100 0.3433000147 2.1243999004
 7445.0000000 12.064099312 119.19999695 80.220901489 5.4102001190 4.3354001045 0.3445000052 2.1353001595
 7445.5000000 12.112399101 117.90000153 70.062202454 5.9071002007 4.6444001198 0.3309000134 2.1400001049
 7446.0000000 12.147600174 115.09999847 66.118598938 5.9962000847 4.8094000816 0.3204999864 2.1426999569
 7446.5000000 12.135300636 115.79999542 69.800796509 6.7175998688 5.0177998543 0.3152000010 2.1598999500
 7447.0000000 12.131099701 113.70000458 66.692100525 6.3298997879 4.8410000801 0.3185000122 2.1953001022
 7447.5000000 12.169199944 114.19999695 74.695503235 6.2333998680 4.7326002121 0.3334000111 2.2363998890
 7448.0000000 12.183300018 115.79999542 73.136596680 6.1803998947 5.0390000343 0.3328999877 2.2641999722
 7448.5000000 12.227000237 115.20000458 84.326202393 5.6181001663 4.4514999390 0.3416000009 2.2336001396
 7449.0000000 12.059299469 114.09999847 86.122001648 5.3298997879 4.2878999710 0.3477999866 2.2067999840
 7449.5000000 12.105600357 113.89999390 99.267303467 5.4212999344 4.4709000587 0.3632999957 2.1895000935
 7450.0000000 12.056599617 113.09999847 105.84259796 5.3910999298 4.4054999352 0.3673000038 2.1870000362
 7450.5000000 12.088000298 112.40000153 109.49700165 5.6371998787 4.4786000252 0.3531999886 2.1696999073
 7451.0000000 12.169000626 114.69999695 101.90589905 6.0917000771 4.8618001938 0.3416999876 2.1463000774
 7451.5000000 12.247099876 116.10000610 89.987602234 5.7442998886 4.5194001198 0.3454999924 2.1023998260
 7452.0000000 12.300999641 115.90000153 81.490196228 5.7968001366 4.6754999161 0.3718999922 2.0688998699
 7452.5000000 12.309499741 115.40000153 75.135597229 6.1908001900 4.8762998581 0.3770000041 2.0474998951
 7453.0000000 12.384300232 115.69999695 76.167503357 6.1683001518 4.7933998108 0.3828000128 2.0936000347
 7453.5000000 12.312700272 116.20000458 75.174301147 6.3303999901 4.9172000885 0.3686000109 2.1370999813
 7454.0000000 12.200500488 113.89999390 77.980499268 6.2323999405 4.9537000656 0.3619000018 2.1591999531
 7454.5000000 12.169199944 114.69999695 72.922401428 6.1076002121 4.8464999199 0.3366999924 2.1689000130
 7455.0000000 12.068200111 114.79999542 69.883102417 5.5177001953 4.3723998070 0.3240999877 2.1701002121
 7455.5000000 12.008099556 113.89999390 66.528099060 5.1964001656 4.1490001678 0.3176999986 2.1661000252
 7456.0000000 11.997400284 114.50000000 77.579200745 5.0233998299 4.2687997818 0.3161000013 2.1760001183
 7456.5000000 12.002099991 114.50000000 81.032600403 4.8852000237 4.1416997910 0.3411000073 2.1981000900
 7457.0000000 11.991799355 115.79999542 90.426597595 5.1887998581 4.3344998360 0.3529999852 2.2101001740
 7457.5000000 11.967599869 117.59999847 82.332298279 5.2353000641 4.3306999207 0.3580999970 2.1976001263
 7458.0000000 11.989399910 119.40000153 82.530799866 4.9299001694 4.1412000656 0.3465000093 2.1719999313
 7458.5000000 12.042800903 119.09999847 75.104797363 4.7441000938 4.0279998779 0.3431999981 2.1541998386
 7459.0000000 12.115100861 118.79999542 72.648803711 4.4426999092 4.0248999596 0.3524999917 2.1545000076
 7459.5000000 12.060899734 117.10000610 73.734199524 4.3064999580 3.7451000214 0.3521000147 2.1642999649
 7460.0000000 12.117800713 116.00000000 78.676902771 4.4528999329 3.7762000561 0.3544000089 2.1891000271
 7460.5000000 12.207500458 115.49999237 88.332397461 4.5121002197 4.0363998413 0.3443000019 2.2202999592
 7461.0000000 12.329199791 114.00000000 88.332397461 4.3333001137 3.8991999626 0.3253000081 2.2532999516
 7461.5000000 12.338399887 114.69999695 85.156402588 4.2157998085 3.7618999481 0.3305000067 2.2613000870
 7462.0000000 12.435600281 115.30000305 83.143402100 3.9658999443 3.5871999264 0.3300000131 2.2502000332
 7462.5000000 12.356699944 115.90000153 84.709098816 3.9449999332 3.4149000645 0.3436000049 2.2361998558
 7463.0000000 12.249400139 115.69999695 82.724098206 3.8991000652 3.4832000732 0.3343999982 2.2308998108
 7463.5000000 12.254599571 115.20000458 81.829399109 3.9495999813 3.4230999947 0.3357000053 2.2404999733
 7464.0000000 12.348400116 116.00000000 81.382102966 3.8768000603 3.3945000172 0.3436000049 2.2453000546
 7464.5000000 12.357000351 115.49999237 80.303398132 3.9900999069 3.4539000988 0.3418999910 2.2355999947
 7465.0000000 12.440700531 115.79999542 76.003997803 3.8849999905 3.4649000168 0.3336000144 2.2231001854
 7465.5000000 12.490799904 114.09999847 71.530700684 3.9267001152 3.4303998947 0.3210999966 2.2163000107
 7466.0000000 12.405399323 112.50000000 74.613800049 3.9860000610 3.5662000179 0.3091000021 2.2204999924
 7466.5000000 12.292600632 111.29999542 80.031501770 4.0198998451 3.5018999577 0.3016000092 2.2307000160
 7467.0000000 12.305899620 111.29999542 83.336799622 4.2554998398 3.7427999973 0.2969000041 2.2416000366
 7467.5000000 12.348400116 112.00000000 85.174400330 4.4574999809 4.0274000168 0.3043999970 2.2656998634
 7468.0000000 12.375199318 112.80000305 87.187400818 4.4711999893 4.1093997955 0.3418000042 2.2734999657
 7468.5000000 12.377899170 112.70000458 87.144302368 4.1572999954 3.8575999737 0.3594999909 2.2663998604
 7469.0000000 12.417200089 114.30000305 87.419998169 4.0352001190 3.5905001163 0.3785000145 2.2483999729
 7469.5000000 12.337300301 114.00000000 83.170303345 3.8775999546 3.4786000252 0.3562999964 2.2431001663
 7470.0000000 12.349699974 113.19999695 84.252403259 3.8334999084 3.4535000324 0.3495000005 2.2458999157
 7470.5000000 12.388600349 113.40000153 79.503402710 4.0570998192 3.5204999447 0.3262000084 2.2330000401
 7471.0000000 12.332099915 114.79999542 75.518096924 4.1154999733 3.5889999866 0.3429999948 2.2278997898
 7471.5000000 12.356699944 115.79999542 76.989196777 4.2231998444 3.7014000416 0.3440000117 2.2336001396
 7472.0000000 12.318299294 114.90000153 78.098297119 3.9386999607 3.6240000725 0.3659999967 2.2574999332
 7472.5000000 12.378999710 114.09999847 79.175796509 4.0226998329 3.4969000816 0.3476000130 2.2602000237
 7473.0000000 12.274800301 113.50000000 69.781799316 4.3434000015 3.6644001007 0.3282999992 2.2508997917
 7473.5000000 12.213899612 115.40000153 61.562500000 4.2326002121 3.6064000130 0.3079000115 2.2211000919
 7474.0000000 12.480900764 116.29999542 60.220500946 4.2357001305 3.6500000954 0.3106000125 2.1912000179
 7474.5000000 12.662199974 116.50000000 59.549499512 4.2972002029 3.7279000282 0.3163000047 2.1718997955
 7475.0000000 12.867400169 116.80000305 59.471599579 4.2894001007 3.6698000431 0.3282999992 2.1658999920
 7475.5000000 13.147500038 116.00000000 59.943801880 4.4145998955 3.8740999699 0.3301999867 2.1621000767
 7476.0000000 12.827099800 116.29999542 60.167499542 4.8944001198 4.3330998421 0.3429999948 2.1512999535
 7476.5000000 12.395500183 114.90000153 61.349300385 5.0996999741 4.5391998291 0.3337999880 2.1447000504
 7477.0000000 12.398200035 115.20000458 58.199901581 5.1686000824 4.5423002243 0.3407000005 2.1418001652
 7477.5000000 12.428400040 114.79999542 56.508098602 4.9980998039 4.4449000359 0.3528999984 2.1319999695
 7478.0000000 12.478199959 114.19999695 60.581501007 4.4159002304 4.0549998283 0.3693000078 2.1342999935
 7478.5000000 12.442800522 112.70000458 65.853996277 4.1312999725 3.7964000702 0.3716000021 2.1456000805
