# LAS format log file from PETREL
# Project units are specified as depth units
#==================================================================
~Version information
VERS.   2.0:
WRAP.   NO:
#==================================================================
~Well
STRT .ft      10.0000000000 :
STOP .ft      11541.500000 :
STEP .ft     0.50000000 :
NULL .        -999.250000 :
COMP.           : COMPANY
WELL.  Test-04   : WELL
FLD.            : FIELD
LOC.            : LOCATION
SRVC.           : SERVICE COMPANY
DATE.  2025-01-17 10:21:47   : Log Export Date {yyyy-MM-dd HH:mm:ss}
PROV.           : PROVINCE
UWI.      : UNIQUE WELL ID
API.            : API NUMBER
#==================================================================
~Curve
DEPT .ft                   : DEPTH
CALI .in                  : CALI
DT .us/ft                 : DT
GR .gAPI                  : GR
RESD .ohm.m               : RESD
LLS .ohm.m                : LLS
NPHI .ft3/ft3             : NPHI
RHOB .g/cm3               : RHOB
~Parameter
#==================================================================
~Ascii
# ...
 9481.0000000 12.302399635 106.59999847 93.295501709 2.2260999680 2.2667000294 0.3659999967 2.3982000351
 9481.5000000 12.152000427 103.50000000 97.820701599 2.4210999012 2.3852999210 0.3506999910 2.4096000195
 9482.0000000 12.093099594 102.50000000 97.578498840 2.3949000835 2.5388998985 0.3452999890 2.4054999352
 9482.5000000 12.060400009 99.199996948 94.644302368 2.3996999264 2.6261000633 0.3206999898 2.4123001099
 9483.0000000 12.092699051 97.500000000 94.644302368 2.5569999218 2.6161999702 0.3066000044 2.4107999802
 9483.5000000 12.107099533 98.199996948 91.529098511 2.5434999466 2.7641999722 0.2994000018 2.4200000763
 9484.0000000 12.089199066 98.799995422 95.491401672 2.5060999393 2.8159999847 0.3061999977 2.4323000908
 9484.5000000 12.084900856 99.600006104 92.414497375 2.7230999470 2.9904000759 0.3316999972 2.4136002064
 9485.0000000 12.172500610 100.59999847 96.815696716 2.6868999004 2.8369998932 0.3801000118 2.4043998718
 9485.5000000 12.433600426 102.90000153 94.949699402 2.6352000237 2.7514998913 0.3901000023 2.3817999363
 9486.0000000 12.893600464 103.79999542 95.621902466 2.2901999950 2.6663999557 0.3729999959 2.3466000557
 9486.5000000 12.669099808 106.10000610 98.050903320 2.3452000618 2.5239999294 0.3650000095 2.3328998089
 9487.0000000 12.579399109 108.30000305 96.924003601 2.3826000690 2.3369998932 0.3844999969 2.3248000145
 9487.5000000 12.690400124 108.30000305 95.750000000 1.9988000393 2.1236999035 0.4106000066 2.2793998718
 9488.0000000 12.597299576 107.00000000 92.035003662 2.0515000820 2.1870999336 0.4110000134 2.2286000252
 9488.5000000 12.514300346 107.19999695 96.491500854 2.0685999393 2.1752998829 0.4153999984 2.2467000484
 9489.0000000 12.397099495 107.50000000 98.000999451 1.9962999821 2.0309998989 0.4228999913 2.3004999161
 9489.5000000 12.484900475 107.40000153 99.263198853 2.0924000740 2.2118999958 0.4101999998 2.3173000813
 9490.0000000 12.399700165 107.80000305 93.166801453 2.0606000423 2.1208999157 0.4061000049 2.2998001575
 9490.5000000 12.606999397 109.90000153 91.827201843 1.9581999779 2.3338000774 0.3977000117 2.2716999054
 9491.0000000 12.622400284 105.40000153 91.909400940 2.0692999363 2.1477000713 0.3977000117 2.2693998814
 9491.5000000 12.266700745 104.09999847 93.948402405 2.1015000343 2.2049000263 0.3873000145 2.3023998737
 9492.0000000 12.320100784 104.90000153 91.765502930 2.1336998940 2.2590999603 0.3693000078 2.3440999985
 9492.5000000 12.535300255 105.69999695 90.113700867 2.1542999744 2.2823998928 0.3799000084 2.3582999706
 9493.0000000 12.894100189 107.29999542 93.247398376 2.1568999290 2.1593999863 0.3828000128 2.3621001244
 9493.5000000 12.859499931 106.80000305 97.273399353 1.9673999548 2.3412001133 0.3770000041 2.3729999065
 9494.0000000 12.320699692 103.79999542 98.614196777 2.1352000237 2.2444000244 0.3598000109 2.3933999538
 9494.5000000 12.301099777 100.40000153 95.480499268 2.1728000641 2.2251000404 0.3495999873 2.3928000927
 9495.0000000 12.344099998 100.59999847 95.537803650 2.3499000072 2.4047000408 0.3467000127 2.3603999615
 9495.5000000 12.245200157 103.70000458 94.000999451 2.4972000122 2.5357999802 0.3418999910 2.3208999634
 9496.0000000 12.236299515 108.60000610 96.013999939 2.3815000057 2.6988999844 0.3485000134 2.2881999016
 9496.5000000 12.297299385 108.70000458 98.386398315 2.5037000179 2.5285000801 0.3709000051 2.2609999180
 9497.0000000 12.512100220 106.80000305 99.305603027 2.3815999031 2.5961000919 0.3989000022 2.2288999557
 9497.5000000 12.541000366 110.20000458 96.344100952 2.2737998962 2.5868000984 0.4084999859 2.2107999325
 9498.0000000 12.594900131 112.90000153 94.556297302 2.2146000862 2.1454000473 0.4029999971 2.1933000088
 9498.5000000 13.010100365 116.10000610 97.949699402 2.1300001144 2.1881000996 0.3962000012 2.1941001415
 9499.0000000 12.328000069 116.69999695 94.520202637 2.1491999626 2.1572000980 0.4004000127 2.2111999989
 9499.5000000 12.409900665 115.20000458 88.381202698 1.9263999462 2.0820000172 0.4196000099 2.2056999207
 9500.0000000 12.985499382 114.40000153 82.122703552 2.0223000050 2.0369999409 0.4192000031 2.1931002140
 9500.5000000 12.976299286 112.90000153 88.796897888 2.0643999577 2.2778999805 0.4313000143 2.1707999706
 9501.0000000 13.010299683 109.30000305 94.633102417 2.0539000034 2.0801000595 0.4361000061 2.1353001595
 9501.5000000 13.342000008 105.59999847 91.975997925 2.2407000065 2.1194000244 0.4370000064 2.1868000031
 9502.0000000 13.607000351 105.30000305 92.260299683 2.0490999222 2.3175001144 0.4180000126 2.2569999695
 9502.5000000 13.815800667 107.10000610 88.611602783 1.9786000252 2.1754000187 0.4248999953 2.2488000393
 9503.0000000 13.152199745 106.59999847 97.079200745 2.0683000088 2.2816998959 0.4508999884 2.1976001263
 9503.5000000 13.089299202 106.90000153 92.313598633 1.9282000065 2.0264000893 0.4738000035 2.2065000534
 9504.0000000 13.145999908 107.70000458 91.871200562 2.0969998837 2.1733999252 0.4602000117 2.2160000801
 9504.5000000 13.163599968 105.09999847 82.908401489 1.9795999527 2.1357998848 0.4528999925 2.2483000755
 9505.0000000 13.146100044 107.40000153 79.144302368 1.9129999876 2.1096999645 0.4621999860 2.2374999523
 9505.5000000 13.119999886 106.69999695 78.970397949 1.9862999916 2.2190999985 0.4648000002 2.2321000099
 9506.0000000 13.106200218 108.79999542 83.470596313 1.9140000343 2.1328001022 0.4526000023 2.2632000446
 9506.5000000 12.742000580 106.80000305 87.062103271 1.8365999460 2.0250999928 0.4496000111 2.2963998318
 9507.0000000 13.571800232 105.09999847 82.754600525 2.0411000252 2.0462999344 0.4449999928 2.2868001461
 9507.5000000 14.256700516 103.60000610 78.973999023 2.0673000813 2.2648000717 0.4530999959 2.2513000965
 9508.0000000 13.803299904 103.40000153 82.153701782 2.0950999260 2.3412001133 0.4361000061 2.2331998348
 9508.5000000 13.598999977 103.79999542 82.913597107 2.1528000832 2.2639000416 0.4465000033 2.1847000122
 9509.0000000 13.942199707 107.59999847 86.334297180 2.0750000477 2.3108999729 0.4429999888 2.1001000404
 9509.5000000 13.950400352 107.40000153 84.725799561 2.1124999523 2.2481999397 0.4593000114 2.0655000210
 9510.0000000 13.785499573 109.50000000 93.046096802 2.0025999546 2.2290999889 0.4532999992 2.1263000965
 9510.5000000 14.329299927 109.30000305 90.747802734 1.9888000488 2.2065000534 0.4347999990 2.2095000744
 9511.0000000 13.498999596 107.29999542 91.757896423 1.9325000048 2.0506999493 0.4156000018 2.2363998890
 9511.5000000 12.819200516 107.99999237 91.699096680 2.0820000172 2.0840001106 0.4165000021 2.2531001568
 9512.0000000 13.257800102 105.30000305 99.106597900 1.9917000532 2.1522998810 0.4244000018 2.2833001614
 9512.5000000 12.694399834 101.10000610 100.34110260 2.0792000294 2.0878999233 0.4447000027 2.2267000675
 9513.0000000 13.395200729 103.40000153 94.729400635 2.0773000717 2.2290000916 0.4180999994 2.1671001911
 9513.5000000 13.732499123 106.00000000 91.868896484 2.0174999237 2.1635999680 0.4102999866 2.1361999512
 9514.0000000 13.864299774 106.69999695 86.706100464 2.0023000240 2.2595000267 0.4011999965 2.0508000851
 9514.5000000 13.961000443 109.30000305 87.025497437 2.0966999531 2.3115999699 0.4515999854 1.9874000549
 9515.0000000 13.723400116 110.30000305 80.233802795 2.0197999477 2.1616001129 0.4638999999 1.9979000092
 9515.5000000 13.555299759 107.29999542 82.531700134 2.0176999569 2.0562000275 0.4824000001 2.1003000736
 9516.0000000 12.871700287 104.69999695 86.420997620 2.0999999046 2.2079999447 0.4429999888 2.1168000698
 9516.5000000 12.965299606 105.20000458 89.976097107 2.0480999947 2.0736000538 0.4393000007 2.1131999493
 9517.0000000 12.803099632 103.50000000 89.645797729 2.0381000042 2.2348001003 0.4230999947 2.0806000233
 9517.5000000 12.801700592 103.30000305 89.197700500 2.1505999565 2.3052000999 0.4390999973 2.0704998970
 9518.0000000 13.382800102 105.90000153 91.647102356 1.9747999907 2.2776999474 0.4334000051 2.0321998596
 9518.5000000 13.502399445 108.50000000 89.854499817 1.9500999451 2.0659999847 0.4296000004 2.0551002026
 9519.0000000 13.427000046 107.40000153 85.149101257 1.8805999756 2.0927999020 0.4223999977 2.1143999100
