# LAS format log file from PETREL
# Project units are specified as depth units
#==================================================================
~Version information
VERS.   2.0:
WRAP.   NO:
#==================================================================
~Well
STRT .ft      10.0000000000 :
STOP .ft      11541.500000 :
STEP .ft     0.50000000 :
NULL .        -999.250000 :
COMP.           : COMPANY
WELL.  Test-04   : WELL
FLD.            : FIELD
LOC.            : LOCATION
SRVC.           : SERVICE COMPANY
DATE.  2025-01-17 10:21:47   : Log Export Date {yyyy-MM-dd HH:mm:ss}
PROV.           : PROVINCE
UWI.      : UNIQUE WELL ID
API.            : API NUMBER
#==================================================================
~Curve
DEPT .ft                   : DEPTH
CALI .in                  : CALI
DT .us/ft                 : DT
GR .gAPI                  : GR
RESD .ohm.m               : RESD
LLS .ohm.m                : LLS
NPHI .ft3/ft3             : NPHI
RHOB .g/cm3               : RHOB
~Parameter
#==================================================================
~Ascii
# ...
 10520.500000 12.110899925 93.600006104 98.195098877 4.0560002327 3.8531000614 0.2870000005 2.3764998913
 10521.000000 12.295499802 93.400001526 94.013900757 4.0524997711 3.7304000854 0.3260999918 2.3039000034
 10521.500000 12.859100342 94.799995422 96.931999207 3.7084999084 3.4739000797 0.3546000123 2.2709999084
 10522.000000 13.051899910 92.299995422 93.119903564 3.4999001026 3.1131999493 0.3431999981 2.2799999714
 10522.500000 12.649000168 92.500000000 94.436897278 3.0743000507 2.8445999622 0.3420999944 2.2946000099
 10523.000000 13.270099640 90.699996948 89.262802124 2.8371999264 2.7283000946 0.3287999928 2.2458999157
 10523.500000 13.375599861 92.000000000 92.670700073 2.9282000065 2.6954998970 0.3526000082 2.1830999851
 10524.000000 13.032399178 92.000000000 91.073997498 2.7881999016 2.4091999531 0.3765000105 2.1541001797
 10524.500000 12.974300385 98.500000000 92.488899231 2.9818000793 2.6219000816 0.3779999912 2.1238000393
 10525.000000 12.545300484 95.800003052 91.534202576 2.8120000362 2.6630001068 0.3668999970 2.0950000286
 10525.500000 12.948599815 99.300003052 90.850502014 2.6533999443 2.2732999325 0.3562000096 2.0611999035
 10526.000000 12.791399956 99.600006104 87.426696777 2.5892999172 2.4554998875 0.3718999922 2.1092000008
 10526.500000 13.303899765 96.000000000 86.192802429 2.4881000519 2.2188999653 0.3982000053 2.1751999855
 10527.000000 13.174799919 93.799995422 89.285400391 2.4574000835 2.2114999294 0.4137000144 2.2491998672
 10527.500000 12.695099831 97.999992371 93.885101318 2.3394000530 2.0710000992 0.4262999892 2.2632000446
 10528.000000 12.935999870 98.799995422 95.567901611 2.3973000050 2.0666000843 0.3989999890 2.2702000141
 10528.500000 12.726499557 96.000000000 93.940200806 2.3880999088 1.9552999735 0.3987999856 2.2886002064
 10529.000000 12.902000427 98.099998474 88.736602783 2.4231998920 2.4477999210 0.4095000029 2.3363001347
 10529.500000 12.954999924 97.700004578 90.366798401 2.5251998901 2.2042000294 0.4219999909 2.3361999989
 10530.000000 12.960700035 96.399993896 89.455497742 2.5638999939 2.2169001102 0.4361000061 2.2996001244
 10530.500000 13.003499031 97.500000000 90.559799194 2.6071000099 2.2414000034 0.4111000001 2.2828998566
 10531.000000 13.234499931 96.699996948 86.740898132 2.5994000435 2.2493999004 0.4140000045 2.2693998814
 10531.500000 12.682000160 99.300003052 86.978797913 2.6138000488 2.1902999878 0.3986000121 2.2768998146
 10532.000000 12.448100090 100.09999847 86.784599304 2.5919001102 2.2836999893 0.3944999874 2.2683000565
 10532.500000 12.815999031 98.500000000 83.632499695 2.6133000851 2.2848000526 0.3880000114 2.2295000553
 10533.000000 13.104900360 95.800003052 84.216697693 2.6171998978 2.4674000740 0.3829999864 2.2121999264
 10533.500000 13.443000793 97.800003052 87.559097290 2.5897998810 2.1598999500 0.3941000104 2.2606999874
 10534.000000 13.625000000 96.100006104 91.287902832 2.6860001087 2.4005000591 0.3860999942 2.2946999073
 10534.500000 13.329299927 94.699996948 95.028602600 2.5060000420 2.3977000713 0.3675999939 2.2823998928
 10535.000000 12.935400009 97.299995422 93.636703491 2.6443998814 2.3345999718 0.3786999881 2.2383000851
 10535.500000 13.028800011 96.500000000 93.704200745 2.7151999474 2.5306999683 0.3810999990 2.2451999187
 10536.000000 13.170700073 97.500000000 90.780799866 2.6329998970 2.6057000160 0.4108000100 2.2962999344
 10536.500000 13.026699066 87.100006104 86.873596191 2.6637001038 2.5908999443 0.4045999944 2.3556001186
 10537.000000 13.327000618 93.199996948 83.751998901 2.7032999992 2.7953000069 0.3957000077 2.3783998489
 10537.500000 13.842700005 92.199996948 81.203796387 2.7219998837 2.6695001125 0.3763999939 2.3658001423
 10538.000000 12.968600273 93.700004578 86.053199768 2.6373999119 2.7750000954 0.3799999952 2.3687000275
 10538.500000 13.084400177 93.600006104 91.880500793 2.9182999134 2.7511000633 0.3804000020 2.3693001270
 10539.000000 13.060199738 82.700004578 93.700500488 2.7557001114 2.7855999470 0.3770999908 2.3593001366
 10539.500000 13.411700249 85.699996948 94.206497192 2.8440999985 2.9175000191 0.3549999893 2.3589999676
 10540.000000 13.095600128 86.599998474 90.178199768 3.1930999756 3.3229000568 0.3368999958 2.4214999676
 10540.500000 13.131999969 80.499992371 83.496803284 3.7211999893 3.9561998844 0.2944000065 2.4690999985
 10541.000000 12.857399940 78.799995422 76.244499207 4.5907998085 4.8158001900 0.2547000051 2.4091000557
 10541.500000 11.849600792 82.400001526 66.092597961 6.5900001526 6.8043999672 0.2220000029 2.3366999626
 10542.000000 11.829699516 83.799995422 65.475303650 7.9415001869 8.1188001633 0.2399999946 2.3351998329
 10542.500000 11.882200241 90.699996948 66.599700928 7.5599999428 8.4883003235 0.2649999857 2.3526000977
 10543.000000 11.831999779 93.700004578 69.160301208 8.1638002396 8.7356996536 0.2608999908 2.3564000130
 10543.500000 11.779899597 93.700004578 63.275100708 8.4965000153 9.4341001511 0.2339999974 2.2773001194
 10544.000000 11.755199432 95.499992371 50.988098145 10.697500229 11.339200020 0.2053000033 2.2160000801
 10544.500000 11.750499725 93.899993896 47.110900879 17.429599762 17.550699234 0.2158000022 2.1916999817
 10545.000000 11.755100250 92.100006104 47.434200287 38.577598572 35.487499237 0.2187999934 2.1889998913
 10545.500000 11.752099991 94.900001526 56.777198792 41.656799316 38.536098480 0.2245000005 2.1979999542
 10546.000000 11.775100708 95.499992371 60.870601654 36.490200043 33.784900665 0.2188999951 2.1953999996
 10546.500000 11.791000366 95.900001526 66.772796631 25.329799652 22.846900940 0.2369000018 2.2121999264
 10547.000000 11.810499191 95.400001526 69.445800781 15.535799980 15.339099884 0.2389999926 2.2406001091
 10547.500000 11.846100807 94.199996948 74.971603394 10.869299889 10.820899963 0.2597999871 2.3166999817
 10548.000000 11.961599350 89.699996948 83.276901245 8.3643999100 8.7769002914 0.2581000030 2.4103000164
 10548.500000 12.037899971 90.000000000 92.219596863 6.7579998970 7.8008999825 0.2723000050 2.4537000656
 10549.000000 11.996500015 91.599998474 96.936302185 6.2364997864 7.5015001297 0.2703000009 2.4649000168
 10549.500000 12.357600212 89.199996948 95.652397156 5.8253002167 7.1992001534 0.2791999876 2.4631998539
 10550.000000 12.227399826 89.799995422 92.994903564 5.1029000282 6.6764001846 0.3016999960 2.4711000919
 10550.500000 11.985300064 87.199996948 94.728897095 4.9679999352 6.7923998833 0.3235999942 2.4878001213
 10551.000000 12.018899918 89.699996948 94.890502930 5.2459001541 7.0627999306 0.3136000037 2.4578001499
 10551.500000 11.805299759 93.700004578 91.523399353 5.3747000694 7.1146998405 0.2714000046 2.4189999104
 10552.000000 11.729899406 96.000000000 81.289199829 6.0574002266 7.8741998672 0.2310999930 2.3643999100
 10552.500000 11.725600243 97.700004578 72.534896851 7.0644998550 8.8101997375 0.1856999993 2.2923998833
 10553.000000 11.728300095 95.599998474 64.387199402 8.3100004196 9.6663999557 0.1539999992 2.2444999218
 10553.500000 11.736700058 98.099998474 54.918098450 10.275300026 11.348799706 0.1268000007 2.2190001011
 10554.000000 11.699899673 99.000000000 49.761699677 14.282299995 14.806500435 0.1295000017 2.2001998425
 10554.500000 11.700499535 100.40000153 46.042301178 17.421699524 17.504999161 0.1244999990 2.1718001366
 10555.000000 11.727999687 97.599998474 46.783000946 22.190200806 21.313800812 0.1199999973 2.1426999569
 10555.500000 11.740600586 96.800003052 46.776500702 26.601299286 26.803699493 0.1292999983 2.1751000881
 10556.000000 11.838899612 95.200004578 53.277099609 16.399299622 18.133899689 0.1737000048 2.2358999252
 10556.500000 11.732200623 91.000000000 67.449203491 13.201999664 14.619299889 0.2182999998 2.3429999352
 10557.000000 11.860400200 90.900001526 82.544700623 9.4490995407 11.403100014 0.2432000041 2.4046001434
 10557.500000 11.963100433 87.599998474 87.193397522 7.3357000351 8.9106998444 0.2435999960 2.4574999809
 10558.000000 11.667599678 86.100006104 93.004402161 7.0195999146 8.3669004440 0.2229000032 2.4690999985
 10558.500000 11.621400833 86.599998474 86.478797913 6.6496000290 8.2694997787 0.1937000006 2.4532999992
