# LAS format log file from PETREL
# Project units are specified as depth units
#==================================================================
~Version information
VERS.   2.0:
WRAP.   NO:
#==================================================================
~Well
STRT .ft      10.0000000000 :
STOP .ft      11541.500000 :
STEP .ft     0.50000000 :
NULL .        -999.250000 :
COMP.           : COMPANY
WELL.  Test-04   : WELL
FLD.            : FIELD
LOC.            : LOCATION
SRVC.           : SERVICE COMPANY
DATE.  2025-01-17 10:21:47   : Log Export Date {yyyy-MM-dd HH:mm:ss}
PROV.           : PROVINCE
UWI.      : UNIQUE WELL ID
API.            : API NUMBER
#==================================================================
~Curve
DEPT .ft                   : DEPTH
CALI .in                  : CALI
DT .us/ft                 : DT
GR .gAPI                  : GR
RESD .ohm.m               : RESD
LLS .ohm.m                : LLS
NPHI .ft3/ft3             : NPHI
RHOB .g/cm3               : RHOB
~Parameter
#==================================================================
~Ascii
# ...
 4399.0000000 15.189000130 145.40000916 37.367500305 105.96150208 7.0598998070 0.2023999989 2.2699999809
 4399.5000000 15.329999924 141.90000916 35.828601837 103.98519897 7.1419000626 0.2213999927 2.2223999500
 4400.0000000 15.682600021 141.69999695 32.585399628 107.08209991 7.2304000854 0.2666000128 2.2000000477
 4400.5000000 15.934700012 140.50000000 33.169200897 101.16560364 6.9682002068 0.2987999916 2.2144999504
 4401.0000000 16.121200562 142.19999695 35.247200012 96.721702576 7.0643000603 0.3134999871 2.2362999916
 4401.5000000 16.220199585 141.50000000 39.633499146 94.355300903 6.7456998825 0.3109000027 2.2060999870
 4402.0000000 16.229700089 141.00000000 38.316299438 92.797599792 6.8488001823 0.3165999949 2.1965000629
 4402.5000000 16.221700668 138.39999390 33.955001831 95.651603699 6.7616000175 0.3181999922 2.1991999149
 4403.0000000 16.227600098 141.30000305 31.199399948 102.75789642 7.1366000175 0.3156000078 2.2121999264
 4403.5000000 16.220199585 141.90000916 32.026699066 114.31120300 7.3338999748 0.2996999919 2.2178997993
 4404.0000000 16.107099533 143.00000000 34.248100281 126.36399841 7.3267998695 0.2854000032 2.2204999924
 4404.5000000 15.886199951 142.10000610 34.053001404 133.50700378 7.4731998444 0.2721000016 2.2207000256
 4405.0000000 15.853400230 141.80000305 34.885898590 133.97569275 7.3401999474 0.2533000112 2.2248001099
 4405.5000000 15.850800514 142.30000305 35.767898560 128.70610046 7.3622999191 0.2356999964 2.2293000221
 4406.0000000 15.931900024 141.80000305 36.922298431 118.78990173 7.5664000511 0.2301999927 2.2301001549
 4406.5000000 16.169700623 141.60000610 35.652801514 107.67610168 7.6360998154 0.2522000074 2.2313001156
 4407.0000000 16.426799774 140.69999695 36.007499695 97.767700195 7.4506998062 0.2808000147 2.2351000309
 4407.5000000 16.644498825 141.10000610 36.824100494 92.249397278 7.7709999084 0.3140999973 2.2265000343
 4408.0000000 16.671600342 141.39999390 37.183498383 91.193603516 7.7368998528 0.3239000142 2.2203998566
 4408.5000000 16.587200165 141.80000305 36.350299835 96.188201904 7.9435000420 0.3091000021 2.2223000526
 4409.0000000 16.558198929 142.30000305 35.635601044 103.05930328 8.6571998596 0.2937000096 2.2251999378
 4409.5000000 16.437099457 143.09999084 35.472400665 111.62699890 9.3175001144 0.2960000038 2.2304999828
 4410.0000000 16.207799911 143.00000000 37.105400085 122.46309662 9.5576000214 0.3102000058 2.2404999733
 4410.5000000 15.791899681 142.69999695 34.413700104 137.52049255 10.089900017 0.3007999957 2.2534999847
 4411.0000000 15.645800591 139.10000610 33.347599030 155.32470703 10.616299629 0.2870999873 2.2780001163
 4411.5000000 15.630000114 136.39999390 32.175201416 171.28039551 10.486000061 0.2727999985 2.2951002121
 4412.0000000 15.596799850 135.19999695 34.111900330 172.74510193 10.176899910 0.2759999931 2.3020000458
 4412.5000000 15.738699913 135.30000305 36.920501709 167.43960571 10.428999901 0.2811999917 2.2946000099
 4413.0000000 16.022699356 132.69999695 38.564498901 160.61399841 10.726300240 0.2829999924 2.2941000462
 4413.5000000 16.264299393 134.30000305 40.396198273 151.35929871 10.207500458 0.2721000016 2.2941999435
 4414.0000000 16.759300232 132.80000305 39.352100372 144.84480286 10.315400124 0.2743000090 2.2838997841
 4414.5000000 17.186100006 130.19999695 38.944698334 145.06590271 10.696399689 0.2845999897 2.2621998787
 4415.0000000 17.446001053 131.19999695 41.664901733 144.56900024 10.835800171 0.3115999997 2.2441000938
 4415.5000000 17.444700241 131.90000916 38.945999146 147.40969849 11.147199631 0.2978999913 2.2479000092
 4416.0000000 17.204799652 132.39999390 37.706401825 152.19279480 11.352499962 0.2851999998 2.2658998966
 4416.5000000 16.892000198 135.40000916 33.191699982 155.11639404 11.590800285 0.2520999908 2.3126001358
 4417.0000000 16.613500595 138.09999084 37.575401306 157.34680176 12.062600136 0.2280000001 2.3552000523
 4417.5000000 16.414999008 136.00000000 38.296298981 159.72419739 12.422300339 0.2123000026 2.3706998825
 4418.0000000 16.265199661 138.60000610 40.055400848 164.71929932 12.206199646 0.2064000070 2.3673000336
 4418.5000000 16.252899170 136.30000305 38.538700104 158.05380249 11.604499817 0.2171999961 2.3664999008
 4419.0000000 16.421499252 136.39999390 37.982398987 158.12219238 11.672800064 0.2238000035 2.3501999378
 4419.5000000 16.628400803 137.30000305 35.192798615 156.41749573 11.457400322 0.2384999990 2.3268001080
 4420.0000000 16.941900253 137.60000610 33.775001526 154.05079651 10.960200310 0.2504000068 2.3246998787
 4420.5000000 17.072900772 137.19999695 32.144599915 158.89819336 10.653200150 0.2648000121 2.3216998577
 4421.0000000 17.044898987 139.89999390 32.816101074 164.03489685 10.654100418 0.2797999978 2.3004000187
 4421.5000000 16.992200851 141.50000000 32.470699310 168.54139709 10.432999611 0.2829000056 2.2768001556
 4422.0000000 16.835100174 139.40000916 31.606899261 170.63619995 10.066200256 0.2861999869 2.2655000687
 4422.5000000 16.585100174 141.00000000 31.261499405 172.17970276 9.7781000137 0.2800000012 2.2721998692
 4423.0000000 16.541799545 141.50000000 32.504100800 170.42880249 9.4112997055 0.2737999856 2.2821998596
 4423.5000000 16.797300339 142.30000305 30.772699356 166.08909607 8.9723997116 0.2605000138 2.2968997955
 4424.0000000 17.102500916 143.39999390 29.834299088 158.47929382 8.6904001236 0.2648999989 2.2833001614
 4424.5000000 17.056400299 144.10000610 28.252099991 154.60440063 8.2139997482 0.2804999948 2.2676000595
 4425.0000000 17.184000015 143.69999695 31.402700424 149.98429871 8.0329999924 0.2976999879 2.2551000118
 4425.5000000 17.214000702 143.09999084 34.480899811 147.91299438 7.9408998489 0.2883000076 2.2441000938
 4426.0000000 17.205799103 143.30000305 35.946899414 145.06170654 7.9117999077 0.2811999917 2.2314000130
 4426.5000000 17.384099960 142.80000305 34.141101837 143.15580750 7.5627999306 0.2861999869 2.2161998749
 4427.0000000 17.424299240 143.09999084 32.816799164 140.57080078 7.7262997627 0.3199999928 2.2026000023
 4427.5000000 17.357700348 143.19999695 33.291900635 139.26350403 7.2992000580 0.3296000063 2.1966998577
 4428.0000000 17.324399948 144.10000610 38.490100861 135.43009949 7.0618000031 0.3294999897 2.1933000088
 4428.5000000 17.240299225 142.90000916 38.754501343 134.93629456 7.1027002335 0.3095000088 2.2011001110
 4429.0000000 17.021799088 144.00000000 41.576000214 132.81440735 6.6185002327 0.3077000082 2.2072000504
 4429.5000000 16.855100632 144.00000000 40.154598236 138.17190552 6.8172001839 0.2928999960 2.2196998596
 4430.0000000 16.654399872 142.80000305 37.945499420 142.59869385 6.7944002151 0.2746999860 2.2204999924
 4430.5000000 16.558900833 141.60000610 36.758800507 147.74259949 6.8343000412 0.2526000142 2.2255001068
 4431.0000000 16.444099426 143.09999084 35.730598450 151.81460571 6.9471998215 0.2489999980 2.2153999805
 4431.5000000 16.364599228 144.30000305 38.658599854 149.37969971 6.9086999893 0.2561999857 2.2006001472
 4432.0000000 16.403999329 144.30000305 34.932998657 141.87739563 6.3768000603 0.2815999985 2.1748998165
 4432.5000000 16.557100296 144.50000000 34.689399719 136.20649719 5.9010000229 0.2976000011 2.1556999683
 4433.0000000 16.749000549 142.19999695 35.207698822 129.97610474 5.9451999664 0.3048999906 2.1533999443
 4433.5000000 16.933900833 140.80000305 36.073699951 132.45289612 6.1298999786 0.3068000078 2.1746001244
 4434.0000000 17.099199295 139.89999390 37.968700409 130.41119385 5.8784999847 0.3206000030 2.1888000965
 4434.5000000 17.317899704 141.10000610 37.090999603 133.34959412 6.1227998734 0.3303999901 2.1946001053
 4435.0000000 17.347599030 143.39999390 36.564701080 135.79739380 6.1916999817 0.3260999918 2.1772999763
 4435.5000000 17.309999466 144.40000916 35.261299133 136.51770020 6.1978998184 0.3314000070 2.1676001549
 4436.0000000 17.125699997 144.40000916 35.632198334 134.84700012 6.0665998459 0.3440999985 2.1626999378
 4436.5000000 16.961500168 143.69999695 37.562599182 132.47120667 5.8955998421 0.3433000147 2.1698999405
 4437.0000000 16.927400589 142.00000000 37.051399231 128.33929443 5.6778001785 0.3258999884 2.1868999004
