# LAS format log file from PETREL
# Project units are specified as depth units
#==================================================================
~Version information
VERS.   2.0:
WRAP.   NO:
#==================================================================
~Well
STRT .ft      10.0000000000 :
STOP .ft      11541.500000 :
STEP .ft     0.50000000 :
NULL .        -999.250000 :
COMP.           : COMPANY
WELL.  Test-04   : WELL
FLD.            : FIELD
LOC.            : LOCATION
SRVC.           : SERVICE COMPANY
DATE.  2025-01-17 10:21:47   : Log Export Date {yyyy-MM-dd HH:mm:ss}
PROV.           : PROVINCE
UWI.      : UNIQUE WELL ID
API.            : API NUMBER
#==================================================================
~Curve
DEPT .ft                   : DEPTH
CALI .in                  : CALI
DT .us/ft                 : DT
GR .gAPI                  : GR
RESD .ohm.m               : RESD
LLS .ohm.m                : LLS
NPHI .ft3/ft3             : NPHI
RHOB .g/cm3               : RHOB
~Parameter
#==================================================================
~Ascii
# ...
 6940.0000000 16.839599609 109.40000153 33.453800201 18.448600769 5.5717000961 0.1817999929 2.2433998585
 6940.5000000 16.896799088 109.50000000 36.596401215 20.838600159 5.5637998581 0.2085999995 2.2144999504
 6941.0000000 17.334098816 108.79999542 39.963500977 20.790000916 5.6276001930 0.2326000035 2.2101998329
 6941.5000000 17.523799896 112.99999237 38.411201477 20.136600494 5.5422000885 0.2404000014 2.2181999683
 6942.0000000 17.742898941 117.00000000 35.717498779 18.064399719 5.5511999130 0.2316000015 2.2049999237
 6942.5000000 17.704799652 114.79999542 34.789600372 15.907699585 5.7578001022 0.2294999957 2.1981000900
 6943.0000000 17.552499771 113.29999542 36.588600159 14.834600449 5.2776999474 0.2316000015 2.1851000786
 6943.5000000 17.616600037 112.29999542 38.159900665 15.224499702 5.4539999962 0.2389000058 2.1876001358
 6944.0000000 17.811800003 111.39999390 36.863601685 16.332000732 5.6845002174 0.2396000028 2.1923000813
 6944.5000000 18.237600327 112.40000153 36.188999176 18.360900879 5.9766001701 0.2551000118 2.1912000179
 6945.0000000 18.198699951 112.90000153 38.209300995 20.989599228 6.1988000870 0.2658999860 2.1823999882
 6945.5000000 17.842100143 113.60000610 39.525798798 22.255100250 6.4642000198 0.2782000005 2.1779999733
 6946.0000000 17.334098816 114.00000000 43.769401550 22.744699478 6.6852998734 0.2791999876 2.1706001759
 6946.5000000 17.017900467 115.00000000 40.872699738 22.521299362 6.4618000984 0.2748999894 2.1638000011
 6947.0000000 16.932600021 115.59999847 40.005798340 22.027500153 6.3983998299 0.2906999886 2.1526999474
 6947.5000000 17.059600830 116.59999847 38.210098267 20.828199387 6.5223999023 0.3028999865 2.1521999836
 6948.0000000 17.010299683 117.19999695 38.884700775 20.452999115 6.5276999474 0.3226999938 2.1470000744
 6948.5000000 17.003799438 118.70000458 43.096099854 19.909099579 6.1529002190 0.3089999855 2.1519999504
 6949.0000000 16.545700073 117.59999847 41.075901031 19.322200775 6.0920000076 0.2924000025 2.1565999985
 6949.5000000 15.769499779 113.79999542 39.726699829 18.594900131 6.3789000511 0.2705000043 2.1693999767
 6950.0000000 15.831799507 112.59999847 36.840698242 18.564500809 6.3461999893 0.2675999999 2.1766998768
 6950.5000000 16.086500168 112.29999542 36.840698242 18.986999512 6.5535001755 0.2777999938 2.1843998432
 6951.0000000 16.383501053 112.50000000 38.864498138 19.602800369 6.3696999550 0.2842999995 2.1793000698
 6951.5000000 16.508199692 113.89999390 38.186100006 19.236000061 6.7722001076 0.2824000120 2.1788001060
 6952.0000000 16.631900787 115.49999237 39.557498932 18.892400742 6.7118000984 0.2802000046 2.1672999859
 6952.5000000 16.979499817 115.59999847 37.064601898 18.645799637 6.2575001717 0.3082000017 2.1631000042
 6953.0000000 17.282400131 115.59999847 35.068298340 17.934200287 6.1427998543 0.3226000071 2.1713998318
 6953.5000000 17.372100830 117.80000305 34.370300293 18.803499222 6.5390000343 0.3072000146 2.1653997898
 6954.0000000 16.130199432 115.30000305 33.921398163 19.213399887 6.8488001823 0.2788000107 2.1665000916
 6954.5000000 15.966699600 114.90000153 35.757701874 18.880800247 6.5661001205 0.2716000080 2.1624000072
 6955.0000000 16.069799423 114.79999542 34.859798431 17.560699463 6.4468998909 0.2748000026 2.1621000767
 6955.5000000 15.906499863 114.19999695 37.801700592 16.290700912 6.3260002136 0.2651999891 2.1631000042
 6956.0000000 15.871000290 114.00000000 38.191101074 15.183400154 6.0657000542 0.2500999868 2.1666998863
 6956.5000000 15.974800110 115.49999237 38.887500763 14.913299561 6.2378997803 0.2640999854 2.1398000717
 6957.0000000 16.708000183 114.90000153 37.387500763 16.122999191 6.3832001686 0.2917999923 2.1052000523
 6957.5000000 17.666400909 113.70000458 38.734298706 17.780599594 6.7490000725 0.3147000074 2.1068000793
 6958.0000000 17.961299896 116.00000000 41.180500031 18.828599930 6.7339000702 0.3073000014 2.1530001163
 6958.5000000 17.231599808 115.30000305 43.355098724 18.237800598 6.8059000969 0.3082999885 2.1616001129
 6959.0000000 17.127698898 114.30000305 44.055099487 17.138599396 6.4706997871 0.3100000024 2.1294999123
 6959.5000000 17.473699570 114.19999695 46.299800873 16.969100952 6.5394001007 0.3346000016 2.1315000057
 6960.0000000 17.888401031 112.59999847 45.142799377 17.367599487 6.3397998810 0.3589999974 2.1353998184
 6960.5000000 18.152299881 112.80000305 43.118999481 18.216499329 6.3766999245 0.3684999943 2.1359000206
 6961.0000000 17.719499588 113.89999390 40.227100372 19.777599335 6.4657998085 0.3619000018 2.1468999386
 6961.5000000 17.984800339 113.29999542 41.583499908 19.604099274 6.3576998711 0.3434000015 2.1559998989
 6962.0000000 18.459800720 114.19999695 39.989299774 18.612600327 6.3663001060 0.3359000087 2.1466999054
 6962.5000000 18.753999710 115.79999542 41.379501343 17.216499329 5.9879999161 0.3497000039 2.1131999493
 6963.0000000 18.448801041 115.90000153 44.553100586 16.118200302 6.0675997734 0.3702999949 2.0769999027
 6963.5000000 18.299499512 116.69999695 46.597099304 15.846899986 5.9303998947 0.3779000044 2.0734999180
 6964.0000000 17.920999527 117.19999695 48.098800659 15.425800323 5.9829998016 0.3542999923 2.1022000313
 6964.5000000 17.322198868 116.59999847 48.998298645 15.983499527 6.0742998123 0.3172999918 2.1416001320
 6965.0000000 16.978500366 116.59999847 49.936901093 16.602699280 6.3917999268 0.2906999886 2.1575000286
 6965.5000000 16.131399155 116.80000305 43.447101593 18.174699783 6.2843999863 0.2657000124 2.1631000042
 6966.0000000 15.695099831 116.90000153 39.399299622 19.834400177 6.2037000656 0.2554999888 2.1726000309
 6966.5000000 15.574500084 116.69999695 38.235801697 20.485700607 5.9703998566 0.2506999969 2.1754999161
 6967.0000000 15.833600044 117.29999542 41.383998871 19.698400497 6.2513999939 0.2556999922 2.1698999405
 6967.5000000 16.242599487 116.39999390 40.201900482 17.894599915 5.8365001678 0.2556999922 2.1591000557
 6968.0000000 16.882900238 116.69999695 42.703399658 15.621800423 5.7171001434 0.2617000043 2.1538999081
 6968.5000000 17.433700562 117.80000305 41.354198456 13.441499710 5.7065000534 0.2851999998 2.1456000805
 6969.0000000 17.690099716 119.40000153 43.462898254 11.942799568 5.3249001503 0.3041999936 2.1333000660
 6969.5000000 17.870698929 121.00000000 40.511699677 10.406399727 4.9008002281 0.3183999956 2.1226999760
 6970.0000000 17.956300735 121.10000610 44.873901367 9.3823003769 4.6250000000 0.3095999956 2.1193997860
 6970.5000000 18.054698944 120.79999542 47.126598358 9.0733995438 4.7811999321 0.3086999953 2.1212999821
 6971.0000000 17.607799530 120.20000458 65.341300964 10.261799812 5.1290998459 0.3039999902 2.1468999386
 6971.5000000 17.112800598 119.79999542 72.491203308 11.505499840 5.5648999214 0.3025999963 2.1779999733
 6972.0000000 14.899099350 118.50000000 74.068199158 12.030500412 5.7706999779 0.3149000108 2.1831998825
 6972.5000000 13.505300522 117.90000153 62.638099670 11.821700096 6.0545997620 0.3025000095 2.1591000557
 6973.0000000 13.504899979 118.50000000 63.044101715 10.067899704 5.8498001099 0.3055000007 2.1393001080
 6973.5000000 13.369999886 115.79999542 68.450798035 9.9001998901 5.8706998825 0.3007999957 2.1630001068
 6974.0000000 13.127300262 114.90000153 75.655998230 10.325499535 6.2581000328 0.3154000044 2.2041001320
 6974.5000000 12.913999557 114.79999542 70.960700989 9.0823001862 5.6647000313 0.3106000125 2.2088000774
 6975.0000000 12.815999031 114.69999695 67.806800842 8.9984998703 5.7115998268 0.2962000072 2.1905000210
 6975.5000000 12.856599808 115.90000153 68.257400513 9.2812004089 6.1682000160 0.3001999855 2.1881999969
 6976.0000000 13.109700203 116.39999390 74.301902771 8.8336000443 5.8024997711 0.3045000136 2.2216000557
 6976.5000000 13.311300278 115.90000153 76.062896729 8.8880996704 5.7834000587 0.3343000114 2.2337999344
 6977.0000000 13.414500237 117.00000000 73.091003418 10.574899673 6.8477001190 0.3384000063 2.2123999596
 6977.5000000 13.913500786 118.79999542 65.413803101 10.948100090 7.1792001724 0.3492000103 2.1545000076
 6978.0000000 14.665199280 118.29999542 58.862998962 11.048500061 6.9412999153 0.3337000012 2.1322000027
