# LAS format log file from PETREL
# Project units are specified as depth units
#==================================================================
~Version information
VERS.   2.0:
WRAP.   NO:
#==================================================================
~Well
STRT .ft      10.0000000000 :
STOP .ft      11541.500000 :
STEP .ft     0.50000000 :
NULL .        -999.250000 :
COMP.           : COMPANY
WELL.  Test-04   : WELL
FLD.            : FIELD
LOC.            : LOCATION
SRVC.           : SERVICE COMPANY
DATE.  2025-01-17 10:21:47   : Log Export Date {yyyy-MM-dd HH:mm:ss}
PROV.           : PROVINCE
UWI.      : UNIQUE WELL ID
API.            : API NUMBER
#==================================================================
~Curve
DEPT .ft                   : DEPTH
CALI .in                  : CALI
DT .us/ft                 : DT
GR .gAPI                  : GR
RESD .ohm.m               : RESD
LLS .ohm.m                : LLS
NPHI .ft3/ft3             : NPHI
RHOB .g/cm3               : RHOB
~Parameter
#==================================================================
~Ascii
# ...
 8980.5000000 12.351799965 105.69999695 44.091701508 1.0795999765 1.1281000376 0.3481999934 2.0931000710
 8981.0000000 12.798501015 105.59999847 39.592300415 1.0427000523 1.0929000378 0.3709000051 2.1138999462
 8981.5000000 13.125299454 106.59999847 34.922401428 0.9107999802 1.1664999723 0.3714999855 2.0786001682
 8982.0000000 12.675700188 106.00000000 34.922401428 0.9574999809 0.9782999754 0.3553000093 2.0220000744
 8982.5000000 12.978400230 104.69999695 38.597400665 1.0118999481 0.9884999990 0.3190000057 2.0334999561
 8983.0000000 12.945300102 104.40000153 44.665699005 1.1512999535 1.0779000521 0.3039999902 2.1448998451
 8983.5000000 12.143199921 102.99999237 45.337898254 1.3197000027 1.2467000484 0.2930000126 2.2123000622
 8984.0000000 11.858699799 102.40000153 46.861698151 1.2615000010 1.2702000141 0.2815000117 2.2107999325
 8984.5000000 12.003999710 106.50000000 42.380298615 1.3098000288 1.3861000538 0.2874000072 2.1986000538
 8985.0000000 12.339699745 104.50000000 43.276599884 1.1927000284 1.2537000179 0.2989000082 2.2049999237
 8985.5000000 12.584899902 105.20000458 45.763599396 1.1489000320 1.3066999912 0.2913999856 2.2346000671
 8986.0000000 12.602599144 105.59999847 48.452400208 1.2357000113 1.2174999714 0.3073999882 2.2486000061
 8986.5000000 12.636799812 106.39999390 46.634300232 1.2292000055 1.2757999897 0.3242999911 2.2381000519
 8987.0000000 12.626199722 104.60000610 45.912498474 1.2822999954 1.3104000092 0.3565999866 2.2596001625
 8987.5000000 12.844100952 103.09999847 56.837001801 1.3274999857 1.3156000376 0.3450999856 2.2734999657
 8988.0000000 12.642399788 103.40000153 70.530700684 1.2827999592 1.4895000458 0.3443000019 2.3175001144
 8988.5000000 12.137900352 102.90000153 83.302597046 1.5976999998 1.8135999441 0.3407999873 2.3318998814
 8989.0000000 12.173699379 103.70000458 83.852096558 1.8402999640 2.0413999557 0.3425000012 2.3385000229
 8989.5000000 12.015000343 102.99999237 91.534301758 2.0434999466 2.1559998989 0.3289000094 2.3433001041
 8990.0000000 12.058099747 103.09999847 87.547302246 1.8400000334 1.9868999720 0.3501999974 2.3183000088
 8990.5000000 12.072299957 103.89999390 91.776802063 1.8488999605 2.0748000145 0.3612000048 2.2878999710
 8991.0000000 12.078701019 102.00000000 81.807998657 1.9230999947 2.0041999817 0.3481999934 2.2451000214
 8991.5000000 11.923999786 102.50000000 80.865501404 1.7338999510 1.9805999994 0.3161000013 2.2537000179
 8992.0000000 11.984399796 103.79999542 71.659896851 1.6754000187 1.8289999962 0.3075000048 2.2957999706
 8992.5000000 12.057300568 102.50000000 72.378097534 1.5966999531 1.8116999865 0.3300000131 2.3469998837
 8993.0000000 12.089199066 101.00000000 71.839302063 1.5662000179 1.7452000380 0.3422000110 2.3664999008
 8993.5000000 12.085400581 100.80000305 80.578002930 1.6130000353 1.8539999723 0.3531999886 2.3636999130
 8994.0000000 12.096899986 99.699996948 84.835296631 1.8289999962 2.2597000599 0.3501999974 2.3626999855
 8994.5000000 12.081500053 100.59999847 91.030296326 2.0652999878 2.2941999435 0.3458999991 2.3671000004
 8995.0000000 12.144500732 101.50000000 93.103996277 2.1998000145 2.4382998943 0.3319999874 2.3743999004
 8995.5000000 12.194999695 98.799995422 95.661697388 2.0055999756 2.3972001076 0.3192000091 2.3831000328
 8996.0000000 12.052100182 98.500000000 99.539299011 1.9332000017 2.1853001118 0.3255000114 2.3947000504
 8996.5000000 12.064900398 99.900001526 97.519096375 1.9101999998 2.0703001022 0.3296000063 2.3976998329
 8997.0000000 12.066200256 100.59999847 97.545196533 1.8087999821 2.3575999737 0.3332000077 2.3842999935
 8997.5000000 12.070000648 99.300003052 97.095397949 1.7338999510 2.4770998955 0.3386999965 2.3717000484
 8998.0000000 12.070000648 101.20000458 97.605598450 1.9006999731 2.2530000210 0.3287999928 2.3633999825
 8998.5000000 12.068700790 101.29999542 91.533996582 2.1519999504 2.2560999393 0.3397000134 2.3798999786
 8999.0000000 12.109699249 100.00000000 89.735099792 2.0494999886 2.3225998878 0.3422000110 2.3970000744
 8999.5000000 12.139600754 100.09999847 92.426696777 1.9644000530 2.3129000664 0.3465000093 2.4175000191
 9000.0000000 12.173699379 98.400001526 100.23439789 2.0912001133 2.5682001114 0.3465999961 2.4182000160
 9000.5000000 12.185899734 97.700004578 100.14260101 2.2051999569 2.6073999405 0.3454000056 2.4156000614
 9001.0000000 12.190999985 97.999992371 102.39140320 2.4119000435 2.7997999191 0.3639999926 2.4061999321
 9001.5000000 12.353899956 99.400001526 104.70300293 2.4193999767 2.8120000362 0.3549999893 2.4003999233
 9002.0000000 12.191499710 99.300003052 107.43070221 2.3692998886 2.7018001080 0.3407999873 2.3871998787
 9002.5000000 12.072600365 98.500000000 102.93329620 2.3368000984 2.6210999489 0.3262999952 2.3793001175
 9003.0000000 12.063699722 99.000000000 93.616500854 2.3524000645 2.7081000805 0.3274999857 2.3717000484
 9003.5000000 12.065899849 97.400001526 88.057197571 2.1830000877 2.6103999615 0.3433000147 2.3823997974
 9004.0000000 12.109699249 98.300003052 85.981697083 2.2035000324 2.6814000607 0.3524999917 2.3926999569
 9004.5000000 12.130200386 97.199996948 92.824897766 2.2679998875 2.5952000618 0.3707999885 2.4146001339
 9005.0000000 12.134000778 98.300003052 94.555397034 2.1656000614 2.4621999264 0.3698000014 2.4156999588
 9005.5000000 12.122499466 100.30000305 102.25260162 2.3473000526 2.7980000973 0.3625999987 2.4091000557
 9006.0000000 12.109699249 100.09999847 98.879501343 2.3318998814 2.9997000694 0.3447999954 2.3949999809
 9006.5000000 12.141699791 98.600006104 103.44550323 2.5308001041 2.8664000034 0.3404999971 2.3913998604
 9007.0000000 12.143300056 98.799995422 99.578201294 2.4235999584 2.9284999371 0.3368999958 2.3988001347
 9007.5000000 12.150099754 99.799995422 102.66429901 2.2444999218 2.6589999199 0.3492000103 2.4043998718
 9008.0000000 12.175600052 99.500000000 100.35590363 2.5065999031 2.9465000629 0.3477999866 2.3938000202
 9008.5000000 12.348400116 99.300003052 99.107398987 2.2492001057 2.7938001156 0.3641000092 2.3808999062
 9009.0000000 12.600799561 98.300003052 91.651298523 2.4403998852 2.8673000336 0.3513999879 2.3716001511
 9009.5000000 12.454200745 99.500000000 93.023803711 2.5394001007 2.7123000622 0.3490999937 2.3877999783
 9010.0000000 12.253600121 102.90000153 97.785202026 2.4500999451 2.9140999317 0.3587999940 2.3946001530
 9010.5000000 12.417000771 100.90000153 100.69809723 2.5318999290 2.7850000858 0.3759000003 2.3941001892
 9011.0000000 12.876399994 102.99999237 99.594497681 2.4704000950 2.8266000748 0.3899999857 2.3917000294
 9011.5000000 12.778400421 102.80000305 97.293403625 2.4251999855 2.6089999676 0.3704000115 2.3991000652
 9012.0000000 12.902600288 101.50000000 99.195800781 2.3104999065 2.7177000046 0.3657999933 2.4018001556
 9012.5000000 13.137300491 104.60000610 98.112396240 2.3118999004 2.7174000740 0.3693000078 2.3726000786
 9013.0000000 13.091799736 100.40000153 92.968101501 2.2511999607 2.6898999214 0.3903999925 2.3294999599
 9013.5000000 13.604700089 101.29999542 93.248703003 2.2713999748 2.7342998981 0.3937000036 2.2992000580
 9014.0000000 13.869199753 102.29999542 94.108901978 2.2277998924 2.6686999798 0.3833000064 2.3606998920
 9014.5000000 13.023099899 102.29999542 94.506500244 2.3627998829 2.7297999859 0.3817999959 2.3898999691
 9015.0000000 13.138600349 101.69999695 93.388198853 2.2683999538 2.6877999306 0.3795000017 2.3842999935
 9015.5000000 12.733799934 101.10000610 92.941596985 2.2878000736 2.5425000191 0.3939000070 2.3631999493
 9016.0000000 12.868300438 103.50000000 92.492996216 2.3338999748 2.5366001129 0.3971999884 2.3652999401
 9016.5000000 12.769399643 102.99999237 92.940299988 2.3405001163 2.3262999058 0.4072000086 2.3688998222
 9017.0000000 12.765500069 104.69999695 89.867500305 2.2028999329 2.4932000637 0.4029000103 2.3653998375
 9017.5000000 12.481800079 105.30000305 93.663101196 2.1214001179 2.4056000710 0.4056999981 2.3218998909
 9018.0000000 12.582499504 104.90000153 91.901100159 2.1294999123 2.5304999352 0.3957000077 2.2762999535
 9018.5000000 12.660100937 106.90000153 97.652999878 2.1417999268 2.5998001099 0.4034999907 2.2688000202
