# LAS format log file from PETREL
# Project units are specified as depth units
#==================================================================
~Version information
VERS.   2.0:
WRAP.   NO:
#==================================================================
~Well
STRT .ft      10.0000000000 :
STOP .ft      11541.500000 :
STEP .ft     0.50000000 :
NULL .        -999.250000 :
COMP.           : COMPANY
WELL.  Test-04   : WELL
FLD.            : FIELD
LOC.            : LOCATION
SRVC.           : SERVICE COMPANY
DATE.  2025-01-17 10:21:47   : Log Export Date {yyyy-MM-dd HH:mm:ss}
PROV.           : PROVINCE
UWI.      : UNIQUE WELL ID
API.            : API NUMBER
#==================================================================
~Curve
DEPT .ft                   : DEPTH
CALI .in                  : CALI
DT .us/ft                 : DT
GR .gAPI                  : GR
RESD .ohm.m               : RESD
LLS .ohm.m                : LLS
NPHI .ft3/ft3             : NPHI
RHOB .g/cm3               : RHOB
~Parameter
#==================================================================
~Ascii
# ...
 5438.5000000 22.751100540 113.50000000 36.780300140 129.98970032 6.2628002167 0.3912000060 1.9913001060
 5439.0000000 22.738201141 116.39999390 43.054199219 119.45649719 5.9795999527 0.4239000082 1.8961999416
 5439.5000000 22.719200134 116.10000610 41.013900757 115.45459747 5.9848999977 0.3851000071 1.8916999102
 5440.0000000 22.724899292 114.19999695 39.422599792 128.11849976 5.7583999634 0.3361999989 2.0138001442
 5440.5000000 22.745899200 114.69999695 36.934600830 124.26699829 5.9805998802 0.2763999999 2.1814999580
 5441.0000000 21.719400406 114.30000305 40.295700073 122.28929901 5.9011001587 0.2728999853 2.2196002007
 5441.5000000 19.481000900 116.00000000 38.953601837 117.61479950 6.0237002373 0.2865000069 2.1973998547
 5442.0000000 19.013099670 116.80000305 35.857601166 114.35220337 5.8737998009 0.2651999891 2.2007999420
 5442.5000000 18.059598923 119.79999542 31.394300461 113.28739929 5.6840000153 0.2256000042 2.2883000374
 5443.0000000 17.158399582 120.30000305 31.638799667 111.22599792 5.9468998909 0.1941000074 2.3383998871
 5443.5000000 16.792200089 122.19999695 31.638799667 107.60040283 5.8818001747 0.1818999946 2.3243000507
 5444.0000000 16.472000122 120.30000305 37.699401855 103.46320343 5.7190999985 0.1853999943 2.2756001949
 5444.5000000 16.576799393 119.90000153 38.169300079 93.260299683 5.4387998581 0.2000000030 2.2288000584
 5445.0000000 16.858100891 118.70000458 40.413898468 87.341903687 4.8888001442 0.2212000042 2.2225000858
 5445.5000000 17.279500961 120.69999695 40.384998322 87.255203247 5.3351998329 0.2354999930 2.2537000179
 5446.0000000 17.959400177 121.90000153 40.160598755 89.170303345 4.8997998238 0.2433000058 2.2957999706
 5446.5000000 18.287399292 122.50000000 39.242599487 92.474502563 5.0805997849 0.2529999912 2.2713999748
 5447.0000000 18.471799850 123.40000153 35.836101532 96.408897400 5.1950001717 0.2723999918 2.2590000629
 5447.5000000 18.717300415 121.39999390 35.102600098 98.627799988 4.9983000755 0.2811999917 2.2603001595
 5448.0000000 18.929100037 121.10000610 33.069599152 99.543800354 4.9928002357 0.2827999890 2.2662999630
 5448.5000000 19.017801285 119.69999695 30.202299118 100.96939850 5.0840001106 0.2861000001 2.2590000629
 5449.0000000 19.059398651 119.50000000 31.318599701 100.39579773 4.9967999458 0.3027999997 2.2509999275
 5449.5000000 19.025899887 119.50000000 31.525499344 97.164398193 4.9151000977 0.3082999885 2.2346999645
 5450.0000000 18.909500122 118.40000153 35.086601257 97.958999634 4.7866001129 0.2901000082 2.2213997841
 5450.5000000 18.686201096 116.39999390 34.416801453 100.65529633 4.6462998390 0.2768000066 2.2306001186
 5451.0000000 18.300300598 119.50000000 37.319301605 99.567802429 4.6902999878 0.2770999968 2.2446000576
 5451.5000000 18.083599091 122.50000000 33.723098755 100.11260223 4.6381998062 0.3113999963 2.2316999435
 5452.0000000 18.014799118 121.80000305 31.954500198 99.406799316 4.4169001579 0.3122999966 2.2063999176
 5452.5000000 17.913801193 121.59999847 29.516000748 96.136001587 4.7933001518 0.3059999943 2.1954998970
 5453.0000000 17.945600510 121.39999390 30.428300858 90.328498840 4.5370001793 0.2856999934 2.1956000328
 5453.5000000 17.947000504 121.80000305 32.888599396 86.112503052 4.5278000832 0.2874999940 2.1830999851
 5454.0000000 18.002399445 123.60000610 36.939399719 79.533798218 4.5690999031 0.3172000051 2.1791000366
 5454.5000000 18.143199921 123.40000153 38.728801727 71.971496582 4.2072000504 0.3497000039 2.1721999645
 5455.0000000 18.389299393 120.09999847 38.750801086 64.685501099 4.5598998070 0.3648000062 2.1616001129
 5455.5000000 18.522500992 119.19999695 38.453701019 61.212398529 4.5005002022 0.3603999913 2.1653001308
 5456.0000000 18.359899521 117.00000000 36.440700531 55.825298309 4.3066000938 0.3258999884 2.1721000671
 5456.5000000 18.229200363 115.49999237 35.524101257 53.620601654 4.7347998619 0.3213999867 2.1940000057
 5457.0000000 17.926300049 113.79999542 32.388000488 51.031200409 4.8517999649 0.3057000041 2.2155001163
 5457.5000000 17.650100708 113.89999390 38.426998138 47.121700287 4.9489998817 0.3224999905 2.2261998653
 5458.0000000 17.008399963 115.00000000 39.545299530 49.846298218 5.1213998795 0.3118999898 2.2376999855
 5458.5000000 17.009300232 116.69999695 43.572898865 55.147399902 5.2993001938 0.3093000054 2.2455999851
 5459.0000000 17.229499817 117.70000458 42.203800201 59.203201294 5.5032000542 0.3019999862 2.2543001175
 5459.5000000 17.755100250 118.19999695 46.006099701 65.763198853 5.6921000481 0.3377999961 2.2246999741
 5460.0000000 18.447200775 120.30000305 44.469100952 67.290496826 5.7796001434 0.3639000058 2.1960999966
 5460.5000000 18.406799316 122.19999695 39.799198151 67.411697388 6.0317997932 0.3691000044 2.1782000065
 5461.0000000 18.026399612 123.19999695 35.304698944 73.302398682 6.1603999138 0.3483999968 2.1796000004
 5461.5000000 18.083801270 122.29999542 37.117099762 76.158798218 6.5250000954 0.3226999938 2.1847000122
 5462.0000000 18.077199936 121.39999390 38.459201813 83.038200378 6.8789000511 0.3228999972 2.1846001148
 5462.5000000 18.048700333 121.80000305 38.905700684 84.974800110 7.3025999069 0.3224999905 2.1743998528
 5463.0000000 17.976799011 120.59999847 36.646701813 91.330101013 7.6009998322 0.3321999907 2.1675000191
 5463.5000000 17.610898972 120.00000000 32.160198212 104.29560089 7.8057999611 0.3255000114 2.1633000374
 5464.0000000 17.387899399 119.50000000 30.374000549 115.02639771 8.1617002487 0.3163999915 2.1668999195
 5464.5000000 17.026399612 119.19999695 32.357601166 130.25590515 8.6858997345 0.3055000007 2.1659998894
 5465.0000000 16.832300186 119.90000153 38.609199524 144.85589600 8.5475997925 0.3068999946 2.1706001759
 5465.5000000 16.749698639 120.79999542 38.367599487 148.39010620 9.2079000473 0.3030999899 2.1706998348
 5466.0000000 16.635200500 122.00000000 37.921901703 149.32940674 9.7040996552 0.3215000033 2.1683001518
 5466.5000000 16.761999130 122.99999237 38.368400574 160.06979370 9.2199001312 0.3156999946 2.1623001099
 5467.0000000 16.834100723 122.80000305 39.259899139 134.22279358 9.3808002472 0.3433000147 2.1611001492
 5467.5000000 16.901298523 122.99999237 35.025299072 127.79940033 9.0643997192 0.3316000104 2.1546001434
 5468.0000000 16.888700485 122.29999542 34.802101135 121.35549927 9.1555995941 0.3314999938 2.1441001892
 5468.5000000 16.841100693 121.20000458 36.584999084 124.26159668 9.2592000961 0.3079999983 2.1463999748
 5469.0000000 16.659200668 120.49999237 38.835201263 124.46920013 9.1641998291 0.3023000062 2.1568000317
 5469.5000000 16.746400833 119.69999695 35.244598389 130.88929749 9.2969999313 0.3041000068 2.1730999947
 5470.0000000 16.881000519 119.50000000 33.907398224 131.65370178 8.9174003601 0.2899000049 2.1807999611
 5470.5000000 16.911298752 119.60000610 31.898000717 126.70790100 9.0618000031 0.2786000073 2.1777000427
 5471.0000000 16.920299530 121.00000000 31.469699860 119.27330017 8.3954000473 0.2786000073 2.1728999615
 5471.5000000 16.854398727 120.30000305 32.943698883 111.04029846 7.7319002151 0.2802000046 2.1705000401
 5472.0000000 16.671899796 121.00000000 31.395900726 98.695800781 7.6096000671 0.2953000069 2.1683998108
 5472.5000000 16.569000244 120.30000305 32.551399231 87.354896545 7.0352001190 0.2904999852 2.1712000370
 5473.0000000 16.548500061 120.59999847 30.467500687 82.058998108 7.3344001770 0.2887000144 2.1742000580
 5473.5000000 16.425300598 122.00000000 34.067699432 74.863197327 7.0082998276 0.2967999876 2.1713998318
 5474.0000000 16.371999741 122.70000458 35.188098907 70.329101563 6.7664999962 0.3231999874 2.1618001461
 5474.5000000 16.096899033 123.79999542 35.160999298 67.433296204 6.9176998138 0.3420999944 2.1373000145
 5475.0000000 15.752999306 125.40000153 35.139400482 67.905403137 6.7206001282 0.3391999900 2.1161999702
 5475.5000000 15.275700569 125.69999695 35.587501526 66.528999329 6.7333002090 0.3213000000 2.1115000248
 5476.0000000 14.955499649 125.69999695 34.046100616 67.573501587 6.7980999947 0.3088000119 2.1305000782
 5476.5000000 14.752200127 122.70000458 33.619598389 69.360198975 6.8667001724 0.2894000113 2.1481001377
