# LAS format log file from PETREL
# Project units are specified as depth units
#==================================================================
~Version information
VERS.   2.0:
WRAP.   NO:
#==================================================================
~Well
STRT .ft      10.0000000000 :
STOP .ft      11541.500000 :
STEP .ft     0.50000000 :
NULL .        -999.250000 :
COMP.           : COMPANY
WELL.  Test-04   : WELL
FLD.            : FIELD
LOC.            : LOCATION
SRVC.           : SERVICE COMPANY
DATE.  2025-01-17 10:21:47   : Log Export Date {yyyy-MM-dd HH:mm:ss}
PROV.           : PROVINCE
UWI.      : UNIQUE WELL ID
API.            : API NUMBER
#==================================================================
~Curve
DEPT .ft                   : DEPTH
CALI .in                  : CALI
DT .us/ft                 : DT
GR .gAPI                  : GR
RESD .ohm.m               : RESD
LLS .ohm.m                : LLS
NPHI .ft3/ft3             : NPHI
RHOB .g/cm3               : RHOB
~Parameter
#==================================================================
~Ascii
# ...
 9981.5000000 11.823900223 93.600006104 42.797199249 1.0547000170 1.2072000504 0.2730000019 2.2131998539
 9982.0000000 11.879299164 95.000000000 49.561401367 1.2838000059 1.2639000416 0.2383999974 2.2574999332
 9982.5000000 11.919499397 95.200004578 57.441101074 1.2742999792 1.4888999462 0.2450000048 2.2781000137
 9983.0000000 11.894599915 96.800003052 64.828498840 1.5794999599 1.7099000216 0.2808000147 2.2668001652
 9983.5000000 11.831899643 98.600006104 63.731800079 1.4193999767 1.5928000212 0.3009000123 2.2426998615
 9984.0000000 11.763400078 98.799995422 62.187301636 1.3184000254 1.3969000578 0.2865999937 2.2261002064
 9984.5000000 11.639300346 97.599998474 52.980499268 1.0815000534 1.2761000395 0.2621000111 2.2170000076
 9985.0000000 11.627599716 97.199996948 45.773799896 0.9819999933 1.1398999691 0.2540000081 2.2007999420
 9985.5000000 11.638799667 98.500000000 39.805698395 0.9879000187 1.0829999447 0.2590999901 2.1889998913
 9986.0000000 11.637499809 98.500000000 40.727298737 0.9254999757 1.0929000378 0.2716000080 2.1818001270
 9986.5000000 11.638699532 97.500000000 45.443401337 0.9624000192 1.0627000332 0.2626000047 2.1925001144
 9987.0000000 11.638999939 98.600006104 52.264499664 1.0825999975 1.2092000246 0.2624000013 2.2173998356
 9987.5000000 11.635999680 99.099998474 56.753898621 1.0125000477 1.2120000124 0.2588000000 2.2265000343
 9988.0000000 11.640500069 99.300003052 54.387199402 1.0157999992 1.3116999865 0.2768000066 2.2058000565
 9988.5000000 11.640800476 101.20000458 49.018001556 1.1073999405 1.3686000109 0.2741000056 2.1783998013
 9989.0000000 11.644700050 101.50000000 48.088401794 0.9884999990 1.0851999521 0.2700000107 2.1746001244
 9989.5000000 11.659799576 99.799995422 52.631301880 0.9018999934 1.1576000452 0.2597000003 2.1789999008
 9990.0000000 11.682199478 99.400001526 55.324901581 0.9866999984 1.1187000275 0.2585000098 2.1926999092
 9990.5000000 11.698699951 98.300003052 59.621601105 1.0713000298 1.3071000576 0.2673000097 2.2196002007
 9991.0000000 11.694100380 97.000000000 63.062999725 1.2151000500 1.3312000036 0.2730999887 2.2566001415
 9991.5000000 11.686100006 99.099998474 70.268096924 1.3221999407 1.5196000338 0.2777000070 2.2646000385
 9992.0000000 11.679399490 97.299995422 70.004699707 1.3988000154 1.5664999485 0.2644000053 2.2526998520
 9992.5000000 11.683600426 97.700004578 62.394199371 1.2121000290 1.4638999701 0.2784000039 2.2311000824
 9993.0000000 11.747200012 100.59999847 59.005001068 1.2452000380 1.2667000294 0.2865000069 2.2025001049
 9993.5000000 11.782299995 101.00000000 50.714500427 1.0134999752 1.1892000437 0.2897999883 2.1793999672
 9994.0000000 11.685099602 102.59999847 46.158000946 0.8575000167 1.0965000391 0.2711000144 2.1707999706
 9994.5000000 11.670700073 101.90000153 44.811199188 0.8248000145 0.9514999986 0.2570999861 2.1742999554
 9995.0000000 11.677000046 102.50000000 49.930698395 0.9229999781 1.0498000383 0.2728999853 2.1866002083
 9995.5000000 11.689300537 102.70000458 58.746200562 1.0808000565 1.1248999834 0.2879999876 2.2032999992
 9996.0000000 11.691100121 102.29999542 56.037101746 1.0518000126 1.0703999996 0.3009999990 2.1936998367
 9996.5000000 11.678800583 101.29999542 49.849201202 1.0635000467 1.1406999826 0.2829999924 2.1643998623
 9997.0000000 11.729499817 100.49999237 44.938301086 0.9679999948 1.0098999739 0.2827999890 2.1475000381
 9997.5000000 11.753399849 99.500000000 49.667598724 0.9789999723 1.1491999626 0.2784000039 2.1626000404
 9998.0000000 11.756800652 99.500000000 62.063098907 1.0952999592 1.1050000191 0.2827999890 2.1914999485
 9998.5000000 11.769700050 99.500000000 69.667602539 1.1569000483 1.2506999969 0.2773000002 2.1944999695
 9999.0000000 11.791800499 99.300003052 68.545303345 1.0992000103 1.1841000319 0.2872999907 2.1891999245
 9999.5000000 11.753399849 100.90000153 66.965599060 1.0794999599 1.3174999952 0.2994000018 2.1788001060
 10000.000000 11.732700348 101.00000000 66.741096497 1.0992000103 1.3229999542 0.2998999953 2.1786999702
 10000.500000 11.660599709 101.50000000 65.654296875 1.1478999853 1.2432999611 0.3021999896 2.1763000488
 10001.000000 11.639300346 102.29999542 64.437202454 1.0252000093 1.1044000387 0.2901000082 2.1751999855
 10001.500000 11.647200584 101.39999390 65.152496338 0.9417999983 1.3295999765 0.2951000035 2.1723001003
 10002.000000 11.654000282 100.90000153 63.128601074 1.0518000126 1.0494999886 0.2924000025 2.1700000763
 10002.500000 11.650800705 100.20000458 65.145401001 1.0620000362 1.1360000372 0.3034999967 2.1841001511
 10003.000000 11.656299591 98.500000000 68.694999695 1.2057000399 1.2467000484 0.3018999994 2.2116000652
 10003.500000 11.673100471 98.400001526 74.103103638 1.2355999947 1.3118000031 0.2976999879 2.2372000217
 10004.000000 11.645500183 99.099998474 75.793502808 1.2224999666 1.2757999897 0.2989000082 2.2426998615
 10004.500000 11.648699760 99.300003052 69.095703125 1.1078000069 1.3614000082 0.3041999936 2.2208001614
 10005.000000 11.649000168 101.50000000 67.314796448 0.9846000075 1.2951999903 0.3030000031 2.1902999878
 10005.500000 11.659799576 100.80000305 68.891799927 0.9584000111 1.1325000525 0.3007999957 2.2086000443
 10006.000000 11.687100410 99.199996948 76.987197876 1.1016999483 1.1105999947 0.2876999974 2.2421998978
 10006.500000 11.681900024 96.399993896 92.699897766 1.2086999416 1.3350000381 0.3010999858 2.2643001080
 10007.000000 11.686999321 96.500000000 99.007598877 1.3266999722 1.4575999975 0.3095000088 2.2555000782
 10007.500000 11.678099632 94.300003052 103.43550110 1.2788000107 1.5140999556 0.2955999970 2.2443997860
 10008.000000 11.676799774 92.100006104 90.391998291 1.1439000368 1.5786999464 0.2635000050 2.2566001415
 10008.500000 11.686699867 90.000000000 80.479797363 1.2041000128 1.3811000586 0.2398000062 2.2679998875
 10009.000000 11.683899879 87.199996948 69.709899902 1.3131999969 1.4342000484 0.2382999957 2.2888000011
 10009.500000 11.662300110 87.800003052 65.177398682 1.5865000486 1.8028999567 0.2407999933 2.3161001205
 10010.000000 11.738699913 90.200004578 57.489299774 1.5865000486 1.6919000149 0.2497999966 2.3241999149
 10010.500000 11.716799736 93.300003052 54.075698853 1.4412000179 1.5693999529 0.2680000067 2.2862000465
 10011.000000 11.664700508 96.200004578 56.134601593 1.3439999819 1.5054999590 0.2820000052 2.2411000729
 10011.500000 11.655200005 98.899993896 57.258998871 1.0880999565 1.2725000381 0.2897000015 2.2093000412
 10012.000000 11.694399834 99.799995422 62.871799469 0.9890999794 1.1146999598 0.2885000110 2.2023999691
 10012.500000 11.711999893 99.199996948 62.197101593 0.9695000052 1.1124000549 0.3034999967 2.1873998642
 10013.000000 11.699099541 99.000000000 67.680496216 1.0735000372 1.0844000578 0.3075000048 2.1818997860
 10013.500000 11.720999718 98.099998474 66.160797119 0.9808999896 1.0499999523 0.3107999861 2.1831998825
 10014.000000 11.758299828 98.799995422 69.308998108 0.9980999827 1.1078000069 0.3140000105 2.1947000027
 10014.500000 11.769200325 99.900001526 70.526603699 0.9420999885 1.1217999458 0.3181000054 2.1901998520
 10015.000000 11.753300667 99.600006104 71.648902893 1.0124000311 1.0966000557 0.3158999979 2.1866998672
 10015.500000 11.753300667 99.400001526 72.098701477 1.0281000137 1.1562000513 0.3190999925 2.1981000900
 10016.000000 11.756899834 99.699996948 71.680198669 1.1409000158 1.2753000259 0.3228999972 2.2073998451
 10016.500000 11.727499962 100.80000305 64.077201843 1.0325000286 1.1733000278 0.3226000071 2.1868999004
 10017.000000 11.626099586 100.90000153 58.928100586 1.0082000494 1.1577999592 0.3055999875 2.1621000767
 10017.500000 11.615099907 102.10000610 56.206600189 0.9441000223 1.0628000498 0.2867999971 2.1477999687
 10018.000000 11.613200188 100.40000153 60.910099030 0.8927999735 1.0513999462 0.2906999886 2.1512999535
 10018.500000 11.620299339 99.600006104 68.096000671 0.9283999801 1.0649000406 0.2931999862 2.1733999252
 10019.000000 11.636599541 99.699996948 72.136398315 1.0415999889 1.2324999571 0.2971999943 2.1928000450
 10019.500000 11.655600548 99.400001526 75.753196716 1.0642000437 1.2264000177 0.3093999922 2.2031998634
